volcano_number,volcano_name,primary_volcano_type,last_eruption_year,country,region,subregion,latitude,longitude,elevation,tectonic_settings,evidence_category,major_rock_1,major_rock_2,major_rock_3,major_rock_4,major_rock_5,minor_rock_1,minor_rock_2,minor_rock_3,minor_rock_4,minor_rock_5,population_within_5_km,population_within_10_km,population_within_30_km,population_within_100_km
283001,Abu,Shield(s),-6850,Japan,"Japan, Taiwan, Marianas",Honshu,34.5,131.6,641,Subduction zone / Continental crust (>25 km),Eruption Dated,Andesite / Basaltic Andesite,Basalt / Picro-Basalt,Dacite, , , , , , , ,3597,9594,117805,4071152
355096,Acamarachi,Stratovolcano,Unknown,Chile,South America,"Northern Chile, Bolivia and Argentina",-23.292,-67.618,6023,Subduction zone / Continental crust (>25 km),Evidence Credible,Dacite,Andesite / Basaltic Andesite, , , , , , , , ,0,7,294,9092
342080,Acatenango,Stratovolcano(es),1972,Guatemala,México and Central America,Guatemala,14.501,-90.876,3976,Subduction zone / Continental crust (>25 km),Eruption Observed,Andesite / Basaltic Andesite,Dacite, , , ,Basalt / Picro-Basalt, , , , ,4329,60730,1042836,7634778
213004,Acigol-Nevsehir,Caldera,-2080,Turkey,Mediterranean and Western Asia,Turkey,38.537,34.621,1683,Intraplate / Continental crust (>25 km),Eruption Dated,Rhyolite,Dacite,Basalt / Picro-Basalt,Andesite / Basaltic Andesite, , , , , , ,127863,127863,218469,2253483
321040,Adams,Stratovolcano,950,United States,Canada and Western USA,USA (Washington),46.206,-121.49,3742,Subduction zone / Continental crust (>25 km),Eruption Dated,Andesite / Basaltic Andesite,Basalt / Picro-Basalt, , , ,Dacite, , , , ,0,70,4019,393303
283170,Adatarayama,Stratovolcano(es),1996,Japan,"Japan, Taiwan, Marianas",Honshu,37.647,140.281,1728,Subduction zone / Continental crust (>25 km),Eruption Observed,Andesite / Basaltic Andesite, , , , ,Dacite,Basalt / Picro-Basalt, , , ,428,3936,717078,5024654
221170,Adwa,Stratovolcano,Unknown,Ethiopia,Africa and Red Sea,Africa (northeastern) and Red Sea,10.07,40.84,1733,Rift zone / Intermediate crust (15-25 km),Evidence Credible,Rhyolite,Basalt / Picro-Basalt,Trachyte / Trachydacite, , , , , , , ,101,485,18645,1242922
221110,Afdera,Stratovolcano,Unknown,Ethiopia,Africa and Red Sea,Africa (northeastern) and Red Sea,13.088,40.853,1250,Rift zone / Intermediate crust (15-25 km),Evidence Uncertain,Rhyolite, , , , ,Basalt / Picro-Basalt,Trachybasalt / Tephrite Basanite,Andesite / Basaltic Andesite, , ,51,6042,8611,161009
284160,Agrigan,Stratovolcano,1917,United States,"Japan, Taiwan, Marianas","Izu, Volcano, and Mariana Islands",18.77,145.67,965,Subduction zone / Crustal thickness unknown,Eruption Observed,Basalt / Picro-Basalt,Andesite / Basaltic Andesite, , , , , , , , ,0,0,0,0
342100,Agua,Stratovolcano,Unknown,Guatemala,México and Central America,Guatemala,14.465,-90.743,3760,Subduction zone / Continental crust (>25 km),Evidence Credible,Andesite / Basaltic Andesite, , , , ,Dacite, , , , ,9890,114404,2530449,7441660
382090,Agua de Pau,Stratovolcano,1564,Portugal,Atlantic Ocean,Azores,37.77,-25.47,947,Rift zone / Oceanic crust (< 15 km),Eruption Observed,Trachyte / Trachydacite,Trachybasalt / Tephrite Basanite,Basalt / Picro-Basalt,Trachyandesite / Basaltic Trachyandesite, , , , , , ,406,17272,113131,119653
358062,Aguilera,Stratovolcano,-1250,Chile,South America,Southern Chile and Argentina,-50.33,-73.75,2546,Subduction zone / Continental crust (>25 km),Eruption Dated,Dacite, , , , , , , , , ,0,0,103,5698
264020,Agung,Stratovolcano,2019,Indonesia,Indonesia,Lesser Sunda Islands,-8.343,115.508,2997,Subduction zone / Continental crust (>25 km),Eruption Observed,Andesite / Basaltic Andesite, , , , , , , , , ,5657,76781,968381,4550176
284141,Ahyi,Submarine,2014,United States,"Japan, Taiwan, Marianas","Izu, Volcano, and Mariana Islands",20.42,145.03,-75,Subduction zone / Crustal thickness unknown,Eruption Dated,Andesite / Basaltic Andesite,Basalt / Picro-Basalt, , , , , , , , ,0,0,0,0
282080,Aira,Caldera,2020,Japan,"Japan, Taiwan, Marianas",Ryukyu Islands and Kyushu,31.593,130.657,1117,Subduction zone / Continental crust (>25 km),Eruption Observed,Andesite / Basaltic Andesite,Dacite,Rhyolite, , , , , , , ,4918,113874,905254,2610033
300125,Akademia Nauk,Stratovolcano(es),1996,Russia,Kamchatka and Mainland Asia,Kamchatka Peninsula,53.98,159.45,1180,Subduction zone / Continental crust (>25 km),Eruption Observed,Andesite / Basaltic Andesite,Dacite, , , ,Basalt / Picro-Basalt,Rhyolite, , , ,3,3,615,12484
283130,Akagisan,Stratovolcano,Unknown,Japan,"Japan, Taiwan, Marianas",Honshu,36.56,139.193,1828,Subduction zone / Continental crust (>25 km),Evidence Uncertain,Andesite / Basaltic Andesite, , , , ,Dacite, , , , ,961,4538,1116366,16718375
285070,Akan,Caldera,2008,Japan,"Japan, Taiwan, Marianas",Hokkaido,43.384,144.013,1499,Subduction zone / Continental crust (>25 km),Eruption Observed,Andesite / Basaltic Andesite,Dacite,Basalt / Picro-Basalt,Rhyolite, , , , , , ,2062,2062,9756,929538
283230,Akita-Komagatake,Stratovolcano(es),1971,Japan,"Japan, Taiwan, Marianas",Honshu,39.761,140.799,1637,Subduction zone / Continental crust (>25 km),Eruption Observed,Basalt / Picro-Basalt,Andesite / Basaltic Andesite, , , , , , , , ,376,3864,216708,2521611
283260,Akita-Yakeyama,Stratovolcano,1997,Japan,"Japan, Taiwan, Marianas",Honshu,39.964,140.757,1366,Subduction zone / Continental crust (>25 km),Eruption Observed,Andesite / Basaltic Andesite, , , , ,Dacite, , , , ,127,721,55493,3122037
282022,Akusekijima,Stratovolcano(es),Unknown,Japan,"Japan, Taiwan, Marianas",Ryukyu Islands and Kyushu,29.465,129.594,555,Subduction zone / Oceanic crust (< 15 km),Evidence Uncertain,Andesite / Basaltic Andesite,Dacite, , , , , , , , ,52,52,199,749
311320,Akutan,Stratovolcano,1992,United States,Alaska,Aleutian Islands,54.134,-165.986,1303,Subduction zone / Intermediate crust (15-25 km),Eruption Observed,Basalt / Picro-Basalt,Andesite / Basaltic Andesite,Trachyandesite / Basaltic Trachyandesite, , ,Trachyte / Trachydacite,Dacite, , , ,0,24,233,4361
290390,Alaid,Stratovolcano,2018,Russia,Kuril Islands,Kuril Islands,50.861,155.565,2285,Subduction zone / Continental crust (>25 km),Eruption Observed,Basalt / Picro-Basalt,Andesite / Basaltic Andesite, , , , , , , , ,0,64,64,2887
221112,Alayta,Shield,1915,Ethiopia,Africa and Red Sea,Africa (northeastern) and Red Sea,12.888,40.573,1496,Rift zone / Intermediate crust (15-25 km),Eruption Observed,Basalt / Picro-Basalt,Trachyte / Trachydacite,Trachyandesite / Basaltic Trachyandesite, , , , , , , ,156,925,13459,330411
353040,Alcedo,Shield,1993,Ecuador,South America,Galapagos Islands,-0.43,-91.12,1130,Rift zone / Oceanic crust (< 15 km),Eruption Observed,Basalt / Picro-Basalt, , , , ,Rhyolite,Dacite,Andesite / Basaltic Andesite, , ,290,290,388,10756
221090,Ale Bagu,Stratovolcano,Unknown,Ethiopia,Africa and Red Sea,Africa (northeastern) and Red Sea,13.512,40.631,988,Rift zone / Intermediate crust (15-25 km),Evidence Credible,Basalt / Picro-Basalt,Trachyte / Trachydacite,Rhyolite, , , , , , , ,2,919,8424,278270
221040,Alid,Stratovolcano,Unknown,Eritrea,Africa and Red Sea,Africa (northeastern) and Red Sea,14.88,39.92,904,Rift zone / Intermediate crust (15-25 km),Evidence Credible,Rhyolite,Basalt / Picro-Basalt,Andesite / Basaltic Andesite,Trachyandesite / Basaltic Trachyandesite,Trachyte / Trachydacite, , , , , ,517,2447,25942,1216179
352031,Aliso,Stratovolcano,-2450,Ecuador,South America,Ecuador,-0.53,-78,4267,Subduction zone / Continental crust (>25 km),Eruption Dated,Andesite / Basaltic Andesite,Rhyolite,Dacite, , , , , , , ,0,0,0,0
320020,Alligator Lake,Volcanic field,Unknown,Canada,Canada and Western USA,Canada,60.42,-135.42,2217,Intraplate / Continental crust (>25 km),Evidence Credible,Basalt / Picro-Basalt,Trachybasalt / Tephrite Basanite, , , , , , , , ,0,0,47,20636
342040,Almolonga,Stratovolcano,1818,Guatemala,México and Central America,Guatemala,14.797,-91.519,3173,Subduction zone / Continental crust (>25 km),Eruption Observed,Dacite,Andesite / Basaltic Andesite, , , ,Basalt / Picro-Basalt, , , , ,91323,287487,1126942,6828403
300450,Alney-Chashakondzha,Stratovolcano,1600,Russia,Kamchatka and Mainland Asia,Kamchatka Peninsula,56.656,159.647,2570,Subduction zone / Continental crust (>25 km),Eruption Dated,Basalt / Picro-Basalt,Andesite / Basaltic Andesite, , , ,Rhyolite,Dacite, , , ,0,0,3,10679
221060,Alu-Dalafilla,Fissure vent(s),2008,Ethiopia,Africa and Red Sea,Africa (northeastern) and Red Sea,13.793,40.553,578,Rift zone / Intermediate crust (15-25 km),Eruption Observed,Basalt / Picro-Basalt,Andesite / Basaltic Andesite,Trachyte / Trachydacite,Rhyolite, , , , , , ,0,9,11209,478054
221270,Alutu,Stratovolcano,-50,Ethiopia,Africa and Red Sea,Africa (northeastern) and Red Sea,7.77,38.78,2335,Rift zone / Continental crust (>25 km),Eruption Dated,Rhyolite,Dacite,Basalt / Picro-Basalt, , , , , , , ,6011,25619,314216,6813710
311390,Amak,Stratovolcano,1796,United States,Alaska,Aleutian Islands,55.424,-163.149,488,Subduction zone / Continental crust (>25 km),Eruption Observed,Andesite / Basaltic Andesite, , , , , , , , , ,0,0,0,1345
268072,Amasing,Stratovolcano(es),Unknown,Indonesia,Indonesia,Halmahera,-0.53,127.48,1030,Subduction zone / Oceanic crust (< 15 km),Evidence Credible,Andesite / Basaltic Andesite, , , , , , , , , ,59,803,26015,92417
257030,Ambae,Shield,2018,Vanuatu,Melanesia and Australia,Vanuatu,-15.389,167.835,1496,Subduction zone / Intermediate crust (15-25 km),Eruption Observed,Basalt / Picro-Basalt, , , , , , , , , ,73,1279,4326,73308
273088,Ambalatungan Group,Compound,Unknown,Philippines,Philippines and SE Asia,Luzon,17.32,121.1,2329,Subduction zone / Continental crust (>25 km),Unrest / Holocene,Dacite,Andesite / Basaltic Andesite, , , , , , , , ,493,3803,55724,4652400
266020,Ambang,Complex,2005,Indonesia,Indonesia,Sulawesi,0.75,124.42,1795,Subduction zone / Continental crust (>25 km),Eruption Observed,Andesite / Basaltic Andesite, , , , , , , , , ,9155,46469,319137,1730602
254020,Ambitle,Stratovolcano,-350,Papua New Guinea,Melanesia and Australia,New Ireland,-4.08,153.65,450,Subduction zone / Crustal thickness unknown,Eruption Dated,Phono-tephrite /  Tephri-phonolite,Trachybasalt / Tephrite Basanite,Trachyandesite / Basaltic Trachyandesite,Basalt / Picro-Basalt,Trachyte / Trachydacite, , , , , ,1643,9195,9779,24367
233011,Ambre-Bobaomby,Volcanic field,Unknown,Madagascar,Middle East and Indian Ocean,Indian Ocean (western),-12.6,49.15,1475,Intraplate / Continental crust (>25 km),Evidence Credible,Basalt / Picro-Basalt,Rhyolite,Trachyte / Trachydacite,Phonolite,Foidite, , , , , ,20396,20396,51426,408436
257040,Ambrym,Pyroclastic shield,2018,Vanuatu,Melanesia and Australia,Vanuatu,-16.25,168.12,1334,Subduction zone / Intermediate crust (15-25 km),Eruption Observed,Basalt / Picro-Basalt,Andesite / Basaltic Andesite,Dacite, , , , , , , ,9,186,10826,63999
234001,Amsterdam Island,Stratovolcano,Unknown,France,Middle East and Indian Ocean,Indian Ocean (southern),-37.83,77.52,881,Rift zone / Oceanic crust (< 15 km),Evidence Credible,Basalt / Picro-Basalt, , , , , , , , , ,0,0,0,0
311190,Amukta,Stratovolcano,1997,United States,Alaska,Aleutian Islands,52.5,-171.252,1066,Subduction zone / Intermediate crust (15-25 km),Eruption Observed,Andesite / Basaltic Andesite, , , , , , , , , ,0,0,0,0
284200,Anatahan,Stratovolcano,2008,United States,"Japan, Taiwan, Marianas","Izu, Volcano, and Mariana Islands",16.35,145.67,790,Subduction zone / Crustal thickness unknown,Eruption Observed,Andesite / Basaltic Andesite,Dacite,Basalt / Picro-Basalt,Trachyandesite / Basaltic Trachyandesite, , , , , , ,0,0,0,0
300390,Anaun,Stratovolcano,Unknown,Russia,Kamchatka and Mainland Asia,Kamchatka Peninsula,56.32,158.83,1828,Subduction zone / Continental crust (>25 km),Evidence Uncertain,Basalt / Picro-Basalt,Andesite / Basaltic Andesite, , , , , , , , ,2,4,56,5933
354004,Andahua-Orcopampa,Pyroclastic cone(s),1490,Peru,South America,Peru,-15.42,-72.33,4713,Subduction zone / Continental crust (>25 km),Eruption Dated,Trachyandesite / Basaltic Trachyandesite, , , , ,Trachyte / Trachydacite, , , , ,10317,10317,16541,171897
390023,Andrus,Shield(s),Unknown,Antarctica,Antarctica,Antarctica and South Sandwich Islands,-75.8,-132.33,2978,Intraplate / Continental crust (>25 km),Evidence Uncertain,Trachyte / Trachydacite,Rhyolite,Trachyandesite / Basaltic Trachyandesite, , , , , , , ,0,0,0,0
257110,Aneityum,Stratovolcano(es),Unknown,Vanuatu,Melanesia and Australia,Vanuatu,-20.2,169.78,852,Subduction zone / Intermediate crust (15-25 km),Evidence Uncertain,Basalt / Picro-Basalt,Andesite / Basaltic Andesite, , , , , , , , ,176,692,703,22731
312090,Aniakchak,Caldera,1931,United States,Alaska,Alaska Peninsula,56.88,-158.17,1341,Subduction zone / Continental crust (>25 km),Eruption Observed,Andesite / Basaltic Andesite,Dacite, , , ,Basalt / Picro-Basalt,Trachyte / Trachydacite,Trachyandesite / Basaltic Trachyandesite, , ,0,0,36,479
357153,Antillanca Volcanic Complex,Stratovolcano(es),-230,Chile,South America,Central Chile and Argentina,-40.783,-72.15,1979,Subduction zone / Continental crust (>25 km),Eruption Dated,Basalt / Picro-Basalt,Andesite / Basaltic Andesite, , , , , , , , ,87,521,5986,530586
352030,Antisana,Stratovolcano,1802,Ecuador,South America,Ecuador,-0.481,-78.141,5753,Subduction zone / Continental crust (>25 km),Eruption Observed,Andesite / Basaltic Andesite,Dacite, , , , , , , , ,232,2220,56154,3314142
355180,Antofagasta Volcanic Field,Pyroclastic cone(s),Unknown,Argentina,South America,"Northern Chile, Bolivia and Argentina",-26.12,-67.4,3495,Subduction zone / Continental crust (>25 km),Evidence Uncertain,Andesite / Basaltic Andesite, , , , , , , , , ,188,188,257,4295
357080,Antuco,Stratovolcano,1869,Chile,South America,Central Chile and Argentina,-37.406,-71.349,2979,Subduction zone / Continental crust (>25 km),Eruption Observed,Basalt / Picro-Basalt,Andesite / Basaltic Andesite, , , , , , , , ,117,474,3872,381623
284060,Aogashima,Stratovolcano,1785,Japan,"Japan, Taiwan, Marianas","Izu, Volcano, and Mariana Islands",32.458,139.759,423,Subduction zone / Oceanic crust (< 15 km),Eruption Observed,Basalt / Picro-Basalt,Andesite / Basaltic Andesite, , , , , , , , ,232,232,232,8559
358024,Apagado,Pyroclastic cone,-590,Chile,South America,Southern Chile and Argentina,-41.88,-72.58,1210,Subduction zone / Continental crust (>25 km),Eruption Dated,Basalt / Picro-Basalt, , , , , , , , , ,5,44,4474,354002
343010,Apaneca Range,Stratovolcano(es),Unknown,El Salvador,México and Central America,El Salvador and Honduras,13.891,-89.786,2036,Subduction zone / Continental crust (>25 km),Evidence Credible,Basalt / Picro-Basalt,Andesite / Basaltic Andesite,Trachyandesite / Basaltic Trachyandesite,Dacite,Rhyolite, , , , , ,11141,151502,1113282,6215853
343071,Apastepeque Field,Volcanic field,Unknown,El Salvador,México and Central America,El Salvador and Honduras,13.72,-88.77,700,Subduction zone / Continental crust (>25 km),Evidence Credible,Dacite,Andesite / Basaltic Andesite,Basalt / Picro-Basalt, , , , , , , ,377730,377730,687849,6372608
271030,Apo,Stratovolcano,Unknown,Philippines,Philippines and SE Asia,Mindanao,6.989,125.269,2938,Subduction zone / Continental crust (>25 km),Unrest / Holocene,Andesite / Basaltic Andesite,Dacite, , , , , , , , ,1355,5431,767800,7768291
344091,Apoyeque,Pyroclastic shield,-50,Nicaragua,México and Central America,Nicaragua,12.242,-86.342,518,Subduction zone / Continental crust (>25 km),Eruption Dated,Dacite,Andesite / Basaltic Andesite,Basalt / Picro-Basalt, , , , , , , ,2369,116718,1342581,3445854
355160,Aracar,Stratovolcano,Unknown,Argentina,South America,"Northern Chile, Bolivia and Argentina",-24.29,-67.783,6095,Subduction zone / Continental crust (>25 km),Evidence Credible,Andesite / Basaltic Andesite,Dacite, , , , , , , , ,0,0,94,4803
214060,Aragats,Stratovolcano,Unknown,Armenia,Mediterranean and Western Asia,Western Asia,40.53,44.2,4095,Intraplate / Continental crust (>25 km),Evidence Credible,Andesite / Basaltic Andesite,Basalt / Picro-Basalt,Dacite,Rhyolite, , , , , , ,0,163,150143,3046562
213040,Ararat,Stratovolcano,1840,Turkey,Mediterranean and Western Asia,Turkey,39.7,44.3,5165,Intraplate / Continental crust (>25 km),Eruption Observed,Andesite / Basaltic Andesite,Dacite,Basalt / Picro-Basalt,Trachybasalt / Tephrite Basanite,Rhyolite, , , , , ,25,1239,135563,2811646
273084,Arayat,Stratovolcano,Unknown,Philippines,Philippines and SE Asia,Luzon,15.2,120.742,1026,Subduction zone / Continental crust (>25 km),Evidence Uncertain,Basalt / Picro-Basalt,Trachyandesite / Basaltic Trachyandesite, , , ,Trachybasalt / Tephrite Basanite,Andesite / Basaltic Andesite, , , ,7846,190674,2805269,27216491
221126,Ardoukoba,Fissure vent(s),1978,Djibouti,Africa and Red Sea,Africa (northeastern) and Red Sea,11.58,42.47,298,Rift zone / Intermediate crust (15-25 km),Eruption Observed,Basalt / Picro-Basalt,Trachybasalt / Tephrite Basanite,Rhyolite, , , , , , , ,2895,2895,6898,560146
345033,Arenal,Stratovolcano,2010,Costa Rica,México and Central America,Costa Rica,10.463,-84.703,1670,Subduction zone / Continental crust (>25 km),Eruption Observed,Andesite / Basaltic Andesite,Basalt / Picro-Basalt, , , ,Dacite, , , , ,3429,15643,96512,3027485
231090,"Arhab, Harra of",Volcanic field,500,Yemen,Middle East and Indian Ocean,Middle East (southern),15.63,44.08,3100,Intraplate / Continental crust (>25 km),Eruption Observed,Trachybasalt / Tephrite Basanite,Basalt / Picro-Basalt, , , ,Trachyandesite / Basaltic Trachyandesite, , , , ,284443,284443,820695,6517834
263290,Arjuno-Welirang,Stratovolcano,1952,Indonesia,Indonesia,Java,-7.733,112.575,3339,Subduction zone / Continental crust (>25 km),Eruption Observed,Andesite / Basaltic Andesite,Basalt / Picro-Basalt, , , , , , , , ,2584,53983,4143137,25385433
305011,Arxan-Chaihe,Pyroclastic cone(s),0,China,Kamchatka and Mainland Asia,China (eastern),47.45,120.8,1677,Intraplate / Continental crust (>25 km),Eruption Dated,Basalt / Picro-Basalt, , , , , , , , , ,6435,6435,6435,188163
300058,Asacha,Complex,Unknown,Russia,Kamchatka and Mainland Asia,Kamchatka Peninsula,52.355,157.827,1910,Subduction zone / Continental crust (>25 km),Evidence Credible,Basalt / Picro-Basalt,Andesite / Basaltic Andesite, , , ,Dacite,Rhyolite, , , ,0,0,34,238467
283110,Asamayama,Complex,2019,Japan,"Japan, Taiwan, Marianas",Honshu,36.406,138.523,2568,Subduction zone / Continental crust (>25 km),Eruption Observed,Andesite / Basaltic Andesite,Dacite, , , , , , , , ,583,22371,457576,7629353
385050,Ascension,Stratovolcano,1508,United Kingdom,Atlantic Ocean,Atlantic Ocean (central),-7.95,-14.37,858,Rift zone / Oceanic crust (< 15 km),Eruption Dated,Basalt / Picro-Basalt,Trachybasalt / Tephrite Basanite,Trachyandesite / Basaltic Trachyandesite,Trachyte / Trachydacite,Rhyolite, , , , , ,614,1149,1149,1149
373060,Askja,Stratovolcano,1961,Iceland,Iceland and Arctic Ocean,Iceland (northeastern),65.033,-16.783,1080,Rift zone / Oceanic crust (< 15 km),Eruption Observed,Basalt / Picro-Basalt, , , , ,Rhyolite, , , , ,0,0,0,13028
282110,Asosan,Caldera,2020,Japan,"Japan, Taiwan, Marianas",Ryukyu Islands and Kyushu,32.884,131.104,1592,Subduction zone / Continental crust (>25 km),Eruption Observed,Andesite / Basaltic Andesite,Dacite,Rhyolite,Basalt / Picro-Basalt, , , , , , ,75559,75559,234591,6507519
221125,Assab Volcanic Field,Volcanic field,Unknown,Eritrea,Africa and Red Sea,Africa (northeastern) and Red Sea,12.95,42.43,987,Rift zone / Intermediate crust (15-25 km),Evidence Credible,Basalt / Picro-Basalt, , , , , , , , , ,9,9,97,181952
284150,Asuncion,Stratovolcano,1906,United States,"Japan, Taiwan, Marianas","Izu, Volcano, and Mariana Islands",19.671,145.406,857,Subduction zone / Crustal thickness unknown,Eruption Observed,Andesite / Basaltic Andesite, , , , , , , , , ,0,0,0,0
282070,Ata,Caldera(s),885,Japan,"Japan, Taiwan, Marianas",Ryukyu Islands and Kyushu,31.22,130.57,924,Subduction zone / Continental crust (>25 km),Eruption Observed,Andesite / Basaltic Andesite,Rhyolite,Dacite,Basalt / Picro-Basalt, , , , , , ,93134,93134,171590,1891380
352021,Atacazo,Stratovolcano,-320,Ecuador,South America,Ecuador,-0.353,-78.617,4463,Subduction zone / Continental crust (>25 km),Eruption Dated,Andesite / Basaltic Andesite,Dacite, , , , , , , , ,449,212988,1837303,3769593
311160,Atka,Stratovolcano(es),1812,United States,Alaska,Aleutian Islands,52.331,-174.139,1448,Subduction zone / Intermediate crust (15-25 km),Eruption Observed,Basalt / Picro-Basalt,Dacite,Andesite / Basaltic Andesite, , , , , , , ,0,0,207,207
320030,Atlin Volcanic Field,Pyroclastic cone(s),Unknown,Canada,Canada and Western USA,Canada,59.68,-133.32,1880,Intraplate / Continental crust (>25 km),Evidence Credible,Trachybasalt / Tephrite Basanite,Basalt / Picro-Basalt, , , ,Foidite, , , , ,0,0,94,956
357023,"Atuel, Caldera del",Caldera,Unknown,Argentina,South America,Central Chile and Argentina,-34.65,-70.05,5189,Subduction zone / Continental crust (>25 km),Evidence Credible,Andesite / Basaltic Andesite,Dacite,Basalt / Picro-Basalt, , , , , , , ,297,297,1003,676916
241020,Auckland Volcanic Field,Volcanic field,1350,New Zealand,New Zealand to Fiji,New Zealand,-36.9,174.87,260,Subduction zone / Continental crust (>25 km),Eruption Dated,Trachybasalt / Tephrite Basanite,Basalt / Picro-Basalt,Foidite, , , , , , , ,1049110,1049110,1222436,1446768
313010,Augustine,Lava dome(s),2006,United States,Alaska,Alaska (southwestern),59.363,-153.43,1252,Subduction zone / Continental crust (>25 km),Eruption Observed,Andesite / Basaltic Andesite,Dacite, , , ,Rhyolite,Basalt / Picro-Basalt,Trachyandesite / Basaltic Trachyandesite, , ,0,0,0,759
300100,Avachinsky,Stratovolcano,2001,Russia,Kamchatka and Mainland Asia,Kamchatka Peninsula,53.256,158.836,2717,Subduction zone / Continental crust (>25 km),Eruption Observed,Andesite / Basaltic Andesite,Basalt / Picro-Basalt, , , ,Dacite, , , , ,0,0,180016,270205
331021,Axial Seamount,Submarine,2015,Undersea Features,Hawaii and Pacific Ocean,Pacific Ocean (northern),45.95,-130,-1410,Rift zone / Oceanic crust (< 15 km),Eruption Observed,Basalt / Picro-Basalt, , , , , , , , , ,0,0,0,0
302070,Azas Plateau,Volcanic field,Unknown,Russia,Kamchatka and Mainland Asia,Russia (southeastern),52.433,98.303,2765,Rift zone / Continental crust (>25 km),Evidence Credible,Trachybasalt / Tephrite Basanite,Phono-tephrite /  Tephri-phonolite, , , ,Basalt / Picro-Basalt, , , , ,142,142,142,4532
355061,"Azufre, Cerro del",Stratovolcano,Unknown,Chile,South America,"Northern Chile, Bolivia and Argentina",-21.787,-68.237,5846,Subduction zone / Continental crust (>25 km),Evidence Uncertain,Andesite / Basaltic Andesite,Dacite, , , , , , , , ,0,58,1143,55567
353060,"Azul, Cerro",Shield,2008,Ecuador,South America,Galapagos Islands,-0.92,-91.408,1640,Rift zone / Oceanic crust (< 15 km),Eruption Observed,Basalt / Picro-Basalt, , , , , , , , , ,220,220,314,1936
357060,"Azul, Cerro",Stratovolcano,1967,Chile,South America,Central Chile and Argentina,-35.653,-70.761,3788,Subduction zone / Continental crust (>25 km),Eruption Observed,Dacite,Andesite / Basaltic Andesite, , , ,Basalt / Picro-Basalt, , , , ,9,158,3832,720948
283180,Azumayama,Stratovolcano(es),1977,Japan,"Japan, Taiwan, Marianas",Honshu,37.735,140.244,1949,Subduction zone / Continental crust (>25 km),Eruption Observed,Andesite / Basaltic Andesite,Basalt / Picro-Basalt, , , , , , , , ,128,907,548195,4877648
274030,Babuyan Claro,Stratovolcano(es),1924,Philippines,Philippines and SE Asia,North of Luzon,19.523,121.94,1080,Subduction zone / Crustal thickness unknown,Eruption Observed,Andesite / Basaltic Andesite,Basalt / Picro-Basalt, , , , , , , , ,208,222,222,11819
322090,Bachelor,Stratovolcano,-5800,United States,Canada and Western USA,USA (Oregon),43.979,-121.688,2763,Subduction zone / Continental crust (>25 km),Eruption Dated,Andesite / Basaltic Andesite,Basalt / Picro-Basalt, , , , , , , , ,18,24,22514,231420
255020,Bagana,Lava cone,2020,Papua New Guinea,Melanesia and Australia,Bougainville and Solomon Islands,-6.137,155.196,1855,Subduction zone / Crustal thickness unknown,Eruption Observed,Andesite / Basaltic Andesite, , , , , , , , , ,198,404,7861,115257
300123,Bakening,Stratovolcano,-550,Russia,Kamchatka and Mainland Asia,Kamchatka Peninsula,53.905,158.07,2278,Subduction zone / Continental crust (>25 km),Eruption Dated,Andesite / Basaltic Andesite,Dacite,Basalt / Picro-Basalt,Rhyolite, , , , , , ,0,10,1583,87139
321010,Baker,Stratovolcano(es),1880,United States,Canada and Western USA,USA (Washington),48.777,-121.813,3285,Subduction zone / Continental crust (>25 km),Eruption Observed,Andesite / Basaltic Andesite,Dacite, , , ,Basalt / Picro-Basalt, , , , ,0,46,8568,1990504
231170,"Bal Haf, Harra of",Volcanic field,Unknown,Yemen,Middle East and Indian Ocean,Middle East (southern),14.067,48.3,604,Intraplate / Continental crust (>25 km),Evidence Credible,Basalt / Picro-Basalt, , , , , , , , , ,5690,5690,6643,177124
250020,Baluan,Stratovolcano,Unknown,Papua New Guinea,Melanesia and Australia,Admiralty Islands,-2.57,147.28,254,Subduction zone / Continental crust (>25 km),Evidence Uncertain,Basalt / Picro-Basalt, , , , , , , , , ,242,248,982,46898
271010,Balut,Stratovolcano,Unknown,Philippines,Philippines and SE Asia,Mindanao,5.4,125.375,862,Subduction zone / Continental crust (>25 km),Unrest / Holocene,Andesite / Basaltic Andesite,Basalt / Picro-Basalt, , , , , , , , ,1472,1901,10763,1286239
273050,Banahaw,Complex,Unknown,Philippines,Philippines and SE Asia,Luzon,14.07,121.48,2158,Subduction zone / Continental crust (>25 km),Evidence Credible,Andesite / Basaltic Andesite,Basalt / Picro-Basalt,Dacite, , , , , , , ,754,93134,1698285,23837289
265090,Banda Api,Caldera,1988,Indonesia,Indonesia,Banda Sea,-4.523,129.881,596,Subduction zone / Oceanic crust (< 15 km),Eruption Observed,Dacite,Andesite / Basaltic Andesite,Basalt / Picro-Basalt, , , , , , , ,5682,5682,5810,5810
283160,Bandaisan,Stratovolcano,1888,Japan,"Japan, Taiwan, Marianas",Honshu,37.601,140.072,1816,Subduction zone / Continental crust (>25 km),Eruption Observed,Andesite / Basaltic Andesite, , , , , , , , , ,5923,17608,327454,4709782
341020,Barcena,Pyroclastic cone(s),1953,Mexico,México and Central America,Mexico,19.3,-110.82,332,Rift zone / Oceanic crust (< 15 km),Eruption Observed,Trachyte / Trachydacite,Trachybasalt / Tephrite Basanite,Trachyandesite / Basaltic Trachyandesite,Rhyolite,Basalt / Picro-Basalt, , , , , ,0,0,0,0
373030,Bardarbunga,Stratovolcano,2015,Iceland,Iceland and Arctic Ocean,Iceland (northeastern),64.633,-17.516,2000,Rift zone / Oceanic crust (< 15 km),Eruption Observed,Basalt / Picro-Basalt,Rhyolite, , , , , , , , ,0,0,0,1348
300084,Barkhatnaya Sopka,Lava dome(s),-3550,Russia,Kamchatka and Mainland Asia,Kamchatka Peninsula,52.802,158.24,874,Subduction zone / Continental crust (>25 km),Eruption Dated,Basalt / Picro-Basalt,Andesite / Basaltic Andesite,Dacite,Rhyolite, , , , , , ,0,208,13963,252873
222030,"Barrier, The",Shield,1921,Kenya,Africa and Red Sea,Africa (eastern),2.32,36.57,1032,Rift zone / Continental crust (>25 km),Eruption Observed,Trachyte / Trachydacite,Phonolite,Basalt / Picro-Basalt,Trachyandesite / Basaltic Trachyandesite,Trachybasalt / Tephrite Basanite, , , , , ,17,112,4180,109675
345050,Barva,Complex,-6050,Costa Rica,México and Central America,Costa Rica,10.135,-84.1,2906,Subduction zone / Continental crust (>25 km),Eruption Dated,Andesite / Basaltic Andesite,Basalt / Picro-Basalt,Dacite, , , , , , , ,177,8018,2004665,3399329
275050,Bas Dong Nai,Volcanic field,Unknown,Vietnam,Philippines and SE Asia,Southeast Asia,10.8,107.2,392,Intraplate / Continental crust (>25 km),Evidence Uncertain,Basalt / Picro-Basalt, , , , , , , , , ,991688,991688,991688,12300349
264010,Batur,Caldera,2000,Indonesia,Indonesia,Lesser Sunda Islands,-8.242,115.375,1717,Subduction zone / Continental crust (>25 km),Eruption Observed,Andesite / Basaltic Andesite,Dacite,Trachyandesite / Basaltic Trachyandesite,Basalt / Picro-Basalt, , , , , , ,466899,466899,937766,4289189
355122,"Bayo Gorbea, Cerro",Complex,Unknown,Chile-Argentina,South America,"Northern Chile, Bolivia and Argentina",-25.414,-68.588,5413,Subduction zone / Continental crust (>25 km),Evidence Credible,Andesite / Basaltic Andesite,Dacite, , , , , , , , ,0,26,288,7824
225060,Bayuda Volcanic Field,Pyroclastic cone(s),850,Sudan,Africa and Red Sea,Africa (northern),18.33,32.75,670,Intraplate / Continental crust (>25 km),Eruption Dated,Trachybasalt / Tephrite Basanite, , , , , , , , , ,1124,1124,2752,259325
322060,Belknap,Shield(s),480,United States,Canada and Western USA,USA (Oregon),44.285,-121.841,2095,Subduction zone / Continental crust (>25 km),Eruption Dated,Andesite / Basaltic Andesite,Basalt / Picro-Basalt, , , , , , , , ,0,0,6518,362091
300640,Bely,Shield(s),Unknown,Russia,Kamchatka and Mainland Asia,Kamchatka Peninsula,57.88,160.53,2080,Subduction zone / Continental crust (>25 km),Evidence Uncertain,Basalt / Picro-Basalt, , , , , , , , , ,0,0,20,1320
390022,Berlin,Shield(s),-8350,Antarctica,Antarctica,Antarctica and South Sandwich Islands,-76.05,-136,3478,Intraplate / Continental crust (>25 km),Eruption Dated,Trachyte / Trachydacite,Phonolite,Trachyandesite / Basaltic Trachyandesite,Trachybasalt / Tephrite Basanite, , , , , , ,0,0,0,0
290040,Berutarubesan [Berutarube],Stratovolcano,Unknown,Japan - administered by Russia,Kuril Islands,Kuril Islands,44.462,146.932,1221,Subduction zone / Intermediate crust (15-25 km),Evidence Credible,Andesite / Basaltic Andesite,Dacite, , , , , , , , ,0,113,240,9155
300250,Bezymianny,Stratovolcano,2020,Russia,Kamchatka and Mainland Asia,Kamchatka Peninsula,55.972,160.595,2882,Subduction zone / Continental crust (>25 km),Eruption Observed,Andesite / Basaltic Andesite,Dacite, , , , , , , , ,0,0,47,11728
268073,Bibinoi,Stratovolcano(es),Unknown,Indonesia,Indonesia,Halmahera,-0.761,127.725,932,Subduction zone / Oceanic crust (< 15 km),Evidence Credible,Andesite / Basaltic Andesite, , , , , , , , , ,53,4276,15604,83771
272080,Biliran,Compound,1939,Philippines,Philippines and SE Asia,Central Philippines,11.523,124.535,1301,Subduction zone / Continental crust (>25 km),Eruption Observed,Andesite / Basaltic Andesite,Basalt / Picro-Basalt, , , , , , , , ,4612,78799,254519,3177850
255011,Billy Mitchell,Pyroclastic shield,1580,Papua New Guinea,Melanesia and Australia,Bougainville and Solomon Islands,-6.092,155.225,1544,Subduction zone / Crustal thickness unknown,Eruption Dated,Andesite / Basaltic Andesite,Dacite, , , , , , , , ,113,449,9620,119191
231072,"Birk, Harrat al",Volcanic field,Unknown,Saudi Arabia,Middle East and Indian Ocean,Middle East (southern),18.37,41.63,587,Intraplate / Continental crust (>25 km),Evidence Credible,Basalt / Picro-Basalt,Trachybasalt / Tephrite Basanite, , , , , , , , ,37855,37855,37855,596401
221220,Bishoftu Volcanic Field,Fissure vent(s),Unknown,Ethiopia,Africa and Red Sea,Africa (northeastern) and Red Sea,8.78,38.98,1850,Rift zone / Continental crust (>25 km),Evidence Credible,Basalt / Picro-Basalt,Rhyolite, , , , , , , , ,310101,310101,662037,7986826
324010,Black Butte Crater Lava Field,Shield,-8400,United States,Canada and Western USA,USA (Idaho),43.183,-114.352,1478,Rift zone / Continental crust (>25 km),Eruption Dated,Basalt / Picro-Basalt, , , , , , , , , ,119,158,4440,171376
327050,Black Rock Desert,Volcanic field,1290,United States,Canada and Western USA,USA (Utah),38.97,-112.5,1800,Rift zone / Continental crust (>25 km),Eruption Dated,Basalt / Picro-Basalt,Andesite / Basaltic Andesite, , , ,Rhyolite, , , , ,3292,3292,3679,54291
357102,"Blanca, Laguna",Volcanic field,Unknown,Argentina,South America,Central Chile and Argentina,-39.02,-70.37,1700,Intraplate / Continental crust (>25 km),Evidence Credible,Basalt / Picro-Basalt,Trachyandesite / Basaltic Trachyandesite, , , , , , , , ,0,0,0,0
355210,"Blanco, Cerro",Caldera,-2300,Argentina,South America,"Northern Chile, Bolivia and Argentina",-26.789,-67.765,4670,Subduction zone / Continental crust (>25 km),Eruption Dated,Rhyolite, , , , , , , , , ,39,39,65,14279
311300,Bogoslof,Submarine,2017,United States,Alaska,Aleutian Islands,53.93,-168.03,150,Subduction zone / Intermediate crust (15-25 km),Eruption Observed,Trachyandesite / Basaltic Trachyandesite,Basalt / Picro-Basalt,Andesite / Basaltic Andesite, , , , , , , ,0,0,0,4216
300087,Bolshe-Bannaya,Lava dome(s),Unknown,Russia,Kamchatka and Mainland Asia,Kamchatka Peninsula,52.9,157.78,1200,Subduction zone / Continental crust (>25 km),Evidence Credible,Basalt / Picro-Basalt,Andesite / Basaltic Andesite,Rhyolite,Dacite, , , , , , ,0,27,1061,271762
300300,Bolshoi Payalpan,Shield(s),Unknown,Russia,Kamchatka and Mainland Asia,Kamchatka Peninsula,55.88,157.78,1906,Subduction zone / Continental crust (>25 km),Evidence Uncertain,Andesite / Basaltic Andesite,Basalt / Picro-Basalt, , , , , , , , ,0,0,26,2653
300150,Bolshoi Semiachik,Stratovolcano(es),-4450,Russia,Kamchatka and Mainland Asia,Kamchatka Peninsula,54.32,160.02,1720,Subduction zone / Continental crust (>25 km),Eruption Dated,Basalt / Picro-Basalt,Andesite / Basaltic Andesite,Dacite,Rhyolite, , , , , , ,0,0,554,7373
300360,Bolshoi-Kekuknaysky,Shield(s),-5310,Russia,Kamchatka and Mainland Asia,Kamchatka Peninsula,56.483,157.917,1401,Subduction zone / Continental crust (>25 km),Eruption Dated,Basalt / Picro-Basalt,Andesite / Basaltic Andesite,Dacite, , , , , , , ,0,0,158,2779
221240,Bora-Bericcio,Pyroclastic cone(s),Unknown,Ethiopia,Africa and Red Sea,Africa (northeastern) and Red Sea,8.221,39.05,2267,Rift zone / Continental crust (>25 km),Evidence Credible,Rhyolite, , , , , , , , , ,5822,44666,433373,8356559
221107,Borawli,Stratovolcano,Unknown,Ethiopia,Africa and Red Sea,Africa (northeastern) and Red Sea,13.304,40.987,784,Rift zone / Intermediate crust (15-25 km),Evidence Credible,Basalt / Picro-Basalt,Trachyte / Trachydacite,Rhyolite, , , , , , , ,38,100,3699,111101
221210,Boset-Bericha,Stratovolcano(es),Unknown,Ethiopia,Africa and Red Sea,Africa (northeastern) and Red Sea,8.558,39.475,2447,Rift zone / Continental crust (>25 km),Evidence Credible,Rhyolite,Trachyte / Trachydacite,Basalt / Picro-Basalt,Trachybasalt / Tephrite Basanite,Trachyandesite / Basaltic Trachyandesite, , , , , ,3267,19603,586318,7130451
386020,Bouvet,Shield,-50,Norway,Atlantic Ocean,Atlantic Ocean (southern),-54.408,3.351,741,Rift zone / Oceanic crust (< 15 km),Eruption Dated,Basalt / Picro-Basalt,Trachyte / Trachydacite,Rhyolite,Trachyandesite / Basaltic Trachyandesite, ,Trachybasalt / Tephrite Basanite, , , , ,0,0,0,0
351012,"Bravo, Cerro",Stratovolcano,1720,Colombia,South America,Colombia,5.091,-75.293,3985,Subduction zone / Continental crust (>25 km),Eruption Dated,Dacite,Andesite / Basaltic Andesite,Trachyandesite / Basaltic Trachyandesite, , , , , , , ,1679,4916,538690,3929468
371040,Brennisteinsfjoll,Crater rows,1341,Iceland,Iceland and Arctic Ocean,Iceland (southwestern),63.933,-21.783,610,Rift zone / Oceanic crust (< 15 km),Eruption Observed,Basalt / Picro-Basalt, , , , , , , , , ,33526,33526,163469,203012
320170,Bridge River Cones,Volcanic field,Unknown,Canada,Canada and Western USA,Canada,50.8,-123.4,2500,Subduction zone / Continental crust (>25 km),Evidence Credible,Basalt / Picro-Basalt,Trachybasalt / Tephrite Basanite, , , , , , , , ,55,55,219,15871
390080,Bristol Island,Stratovolcano,2016,United Kingdom,Antarctica,Antarctica and South Sandwich Islands,-59.017,-26.533,1100,Subduction zone / Oceanic crust (< 15 km),Eruption Observed,Basalt / Picro-Basalt,Andesite / Basaltic Andesite, , , , , , , , ,0,0,0,0
390010,Buckle Island,Stratovolcano,1899,Antarctica,Antarctica,Antarctica and South Sandwich Islands,-66.78,163.25,1239,Rift zone / Oceanic crust (< 15 km),Eruption Observed,Trachybasalt / Tephrite Basanite, , , , , , , , , ,0,0,0,0
311010,Buldir,Stratovolcano,Unknown,United States,Alaska,Aleutian Islands,52.35,175.911,656,Subduction zone / Intermediate crust (15-25 km),Evidence Uncertain,Basalt / Picro-Basalt,Andesite / Basaltic Andesite, , , , , , , , ,0,0,0,0
273010,Bulusan,Stratovolcano(es),2017,Philippines,Philippines and SE Asia,Luzon,12.769,124.056,1535,Subduction zone / Continental crust (>25 km),Eruption Observed,Andesite / Basaltic Andesite,Dacite, , , ,Basalt / Picro-Basalt,Rhyolite, , , ,2789,74286,518705,3360418
223004,Bunyaruguru,Maar(s),Unknown,Uganda,Africa and Red Sea,Africa (central),-0.2,30.08,1554,Rift zone / Continental crust (>25 km),Evidence Credible,Foidite, , , , , , , , , ,177517,177517,338735,5955535
221260,Butajiri-Silti Field,Fissure vent(s),Unknown,Ethiopia,Africa and Red Sea,Africa (northeastern) and Red Sea,8.05,38.35,2281,Rift zone / Continental crust (>25 km),Evidence Credible,Basalt / Picro-Basalt, , , , , , , , , ,431631,431631,889323,7096283
264001,Buyan-Bratan,Caldera,Unknown,Indonesia,Indonesia,Lesser Sunda Islands,-8.283,115.133,2244,Subduction zone / Continental crust (>25 km),Evidence Credible,Andesite / Basaltic Andesite,Basalt / Picro-Basalt, , , , , , , , ,333333,333333,935879,4355947
272050,Cabalían,Stratovolcano,1820,Philippines,Philippines and SE Asia,Central Philippines,10.285,125.218,912,Subduction zone / Continental crust (>25 km),Eruption Dated,Andesite / Basaltic Andesite, , , , , , , , , ,26511,88767,277950,2091362
357112,Caburgua-Huelemolle,Pyroclastic cone(s),-5050,Chile,South America,Central Chile and Argentina,-39.25,-71.75,1652,Subduction zone / Continental crust (>25 km),Eruption Dated,Basalt / Picro-Basalt, , , , , , , , , ,5951,5951,17774,521553
273090,Cagua,Stratovolcano,1860,Philippines,Philippines and SE Asia,Luzon,18.222,122.123,1133,Subduction zone / Continental crust (>25 km),Eruption Observed,Andesite / Basaltic Andesite,Basalt / Picro-Basalt, , , , , , , , ,99,1137,34018,1480952
357042,Calabozos,Caldera,Unknown,Chile,South America,Central Chile and Argentina,-35.558,-70.496,3508,Subduction zone / Continental crust (>25 km),Evidence Credible,Dacite,Andesite / Basaltic Andesite, , , , , , , , ,550,550,1023,305637
210040,Calatrava Volcanic Field,Pyroclastic cone(s),-3600,Spain,Mediterranean and Western Asia,Western Europe,38.87,-4.02,1117,Intraplate / Continental crust (>25 km),Eruption Dated,Basalt / Picro-Basalt,Foidite,Trachybasalt / Tephrite Basanite, , , , , , , ,197199,197199,197199,774386
358020,Calbuco,Stratovolcano,2015,Chile,South America,Southern Chile and Argentina,-41.33,-72.618,1974,Subduction zone / Continental crust (>25 km),Eruption Observed,Andesite / Basaltic Andesite, , , , , , , , , ,70,871,32265,575233
357091,Callaqui,Stratovolcano,1980,Chile,South America,Central Chile and Argentina,-37.92,-71.45,3164,Subduction zone / Continental crust (>25 km),Eruption Observed,Andesite / Basaltic Andesite,Basalt / Picro-Basalt, , , ,Dacite, , , , ,56,294,4354,400426
224010,Cameroon,Stratovolcano,2000,Cameroon,Africa and Red Sea,Africa (western),4.203,9.17,4095,Intraplate / Continental crust (>25 km),Eruption Observed,Trachybasalt / Tephrite Basanite,Basalt / Picro-Basalt,Trachyandesite / Basaltic Trachyandesite, , ,Trachyte / Trachydacite,Foidite, , , ,328,26053,417460,3079036
271080,Camiguin,Stratovolcano(es),1953,Philippines,Philippines and SE Asia,Mindanao,9.203,124.673,1552,Subduction zone / Continental crust (>25 km),Eruption Observed,Andesite / Basaltic Andesite,Dacite, , , ,Basalt / Picro-Basalt,Rhyolite, , , ,12173,51587,92178,2871353
274010,Camiguin de Babuyanes,Stratovolcano,1857,Philippines,Philippines and SE Asia,North of Luzon,18.83,121.86,712,Subduction zone / Crustal thickness unknown,Eruption Observed,Andesite / Basaltic Andesite, , , , , , , , , ,876,1066,1369,409653
211010,Campi Flegrei,Caldera,1538,Italy,Mediterranean and Western Asia,Italy,40.827,14.139,458,Subduction zone / Continental crust (>25 km),Eruption Observed,Trachyte / Trachydacite,Phonolite,Trachyandesite / Basaltic Trachyandesite, , ,Trachybasalt / Tephrite Basanite,Phono-tephrite /  Tephri-phonolite, , , ,2234109,2234109,3006865,6019697
211070,Campi Flegrei del Mar di Sicilia,Submarine,1867,Italy,Mediterranean and Western Asia,Italy,37.1,12.7,-8,Rift zone / Continental crust (>25 km),Eruption Observed,Trachybasalt / Tephrite Basanite,Basalt / Picro-Basalt, , , , , , , , ,230578,230578,230578,633350
390100,Candlemas Island,Stratovolcano,1911,United Kingdom,Antarctica,Antarctica and South Sandwich Islands,-57.08,-26.67,550,Subduction zone / Oceanic crust (< 15 km),Eruption Observed,Basalt / Picro-Basalt,Andesite / Basaltic Andesite,Dacite, , , , , , , ,0,0,0,0
357140,Carran-Los Venados,Pyroclastic cone(s),1979,Chile,South America,Central Chile and Argentina,-40.35,-72.07,1114,Subduction zone / Continental crust (>25 km),Eruption Observed,Basalt / Picro-Basalt,Andesite / Basaltic Andesite, , , , , , , , ,4840,4840,9001,452820
327110,Carrizozo,Pyroclastic cone(s),-3250,United States,Canada and Western USA,USA (New Mexico),33.78,-105.93,1731,Rift zone / Continental crust (>25 km),Eruption Dated,Basalt / Picro-Basalt, , , , , , , , , ,2,11,2596,89711
352006,Cayambe,Compound,1786,Ecuador,South America,Ecuador,0.029,-77.986,5790,Subduction zone / Continental crust (>25 km),Eruption Observed,Andesite / Basaltic Andesite,Dacite, , , ,Rhyolite, , , , ,70,1148,109630,3154986
320811,Cayley Volcanic Field,Volcanic field,Unknown,Canada,Canada and Western USA,Canada,50.12,-123.28,2375,Subduction zone / Continental crust (>25 km),Evidence Credible,Andesite / Basaltic Andesite,Dacite, , , , , , , , ,0,0,0,0
358012,Cayutue-La Vigueria,Pyroclastic cone(s),-190,Chile,South America,Southern Chile and Argentina,-41.25,-72.27,506,Subduction zone / Continental crust (>25 km),Eruption Dated,Basalt / Picro-Basalt, , , , , , , , , ,1737,1737,5482,451311
341030,Ceboruco,Stratovolcano,1875,Mexico,México and Central America,Mexico,21.125,-104.508,2280,Subduction zone / Continental crust (>25 km),Eruption Observed,Andesite / Basaltic Andesite,Dacite, , , ,Rhyolite,Trachyandesite / Basaltic Trachyandesite,Trachyte / Trachydacite, , ,616,30319,93057,1282014
222010,Central Island,Tuff cone(s),Unknown,Kenya,Africa and Red Sea,Africa (eastern),3.496,36.04,518,Rift zone / Continental crust (>25 km),Evidence Credible,Basalt / Picro-Basalt,Trachyandesite / Basaltic Trachyandesite,Trachyte / Trachydacite, , , , , , , ,28,28,10253,216485
263170,Cereme,Stratovolcano,1951,Indonesia,Indonesia,Java,-6.895,108.408,3039,Subduction zone / Continental crust (>25 km),Eruption Observed,Andesite / Basaltic Andesite, , , , , , , , , ,915,67377,3058015,25718820
352022,Chacana,Caldera,1773,Ecuador,South America,Ecuador,-0.375,-78.25,4643,Subduction zone / Continental crust (>25 km),Eruption Observed,Rhyolite,Dacite,Andesite / Basaltic Andesite, , , , , , , ,81716,81716,348743,3292546
290030,Chachadake [Tiatia],Stratovolcano,1981,Japan - administered by Russia,Kuril Islands,Kuril Islands,44.353,146.252,1822,Subduction zone / Intermediate crust (15-25 km),Eruption Observed,Basalt / Picro-Basalt,Andesite / Basaltic Andesite, , , , , , , , ,3,223,896,16275
354007,"Chachani, Nevado",Stratovolcano,Unknown,Peru,South America,Peru,-16.191,-71.53,6057,Subduction zone / Continental crust (>25 km),Evidence Uncertain,Andesite / Basaltic Andesite,Dacite,Rhyolite, , , , , , , ,97,1182,887176,1032411
352002,Chachimbiro,Stratovolcano,-3740,Ecuador,South America,Ecuador,0.468,-78.287,4106,Subduction zone / Continental crust (>25 km),Eruption Dated,Dacite,Andesite / Basaltic Andesite, , , , , , , , ,125,5299,356162,3253458
210020,Chaine des Puys,Lava dome(s),-4040,France,Mediterranean and Western Asia,Western Europe,45.775,2.97,1464,Rift zone / Continental crust (>25 km),Eruption Dated,Basalt / Picro-Basalt,Trachybasalt / Tephrite Basanite, , , ,Trachyandesite / Basaltic Trachyandesite,Trachyte / Trachydacite, , , ,323392,323392,427221,1577243
305060,Changbaishan,Stratovolcano,1903,China-North Korea,Kamchatka and Mainland Asia,China (eastern),41.98,128.08,2744,Intraplate / Continental crust (>25 km),Eruption Observed,Trachyte / Trachydacite,Rhyolite,Basalt / Picro-Basalt, , ,Trachyandesite / Basaltic Trachyandesite,Trachybasalt / Tephrite Basanite, , , ,268,1833,29476,1660355
300273,Cherpuk Group,Pyroclastic cone(s),-4550,Russia,Kamchatka and Mainland Asia,Kamchatka Peninsula,55.55,157.47,1868,Subduction zone / Continental crust (>25 km),Eruption Dated,Andesite / Basaltic Andesite, , , , , , , , , ,0,0,32,3323
341080,Chichinautzin,Volcanic field,400,Mexico,México and Central America,Mexico,19.08,-99.13,3930,Subduction zone / Continental crust (>25 km),Eruption Dated,Andesite / Basaltic Andesite,Trachyandesite / Basaltic Trachyandesite,Dacite,Basalt / Picro-Basalt, ,Trachybasalt / Tephrite Basanite, , , , ,584725,584725,4061942,28030794
341120,"Chichon, El",Lava dome(s),1982,Mexico,México and Central America,Mexico,17.36,-93.228,1150,Subduction zone / Continental crust (>25 km),Eruption Observed,Trachyandesite / Basaltic Trachyandesite, , , , ,Trachybasalt / Tephrite Basanite,Andesite / Basaltic Andesite, , , ,3759,11000,143015,3570632
312110,Chiginagak,Stratovolcano,1998,United States,Alaska,Alaska Peninsula,57.135,-156.99,2221,Subduction zone / Continental crust (>25 km),Eruption Observed,Andesite / Basaltic Andesite,Dacite, , , ,Basalt / Picro-Basalt, , , , ,0,0,0,52
290360,Chikurachki,Stratovolcano(es),2016,Russia,Kuril Islands,Kuril Islands,50.324,155.461,1781,Subduction zone / Continental crust (>25 km),Eruption Observed,Basalt / Picro-Basalt,Andesite / Basaltic Andesite, , , , , , , , ,0,65,527,2492
351110,Chiles-Cerro Negro,Stratovolcano,1936,Colombia-Ecuador,South America,Colombia,0.817,-77.938,4698,Subduction zone / Continental crust (>25 km),Evidence Uncertain,Dacite,Andesite / Basaltic Andesite, , , , , , , , ,977,4573,151519,1826460
357070,"Chillan, Nevados de",Stratovolcano,2020,Chile,South America,Central Chile and Argentina,-36.868,-71.378,3180,Subduction zone / Continental crust (>25 km),Eruption Observed,Andesite / Basaltic Andesite,Dacite,Rhyolite, , , , , , , ,68,371,3733,512325
343090,Chinameca,Stratovolcano,Unknown,El Salvador,México and Central America,El Salvador and Honduras,13.478,-88.33,1300,Subduction zone / Continental crust (>25 km),Evidence Credible,Andesite / Basaltic Andesite, , , , , , , , , ,14998,89206,824983,4897760
342170,Chingo,Stratovolcano,Unknown,Guatemala-El Salvador,México and Central America,Guatemala,14.12,-89.73,1775,Subduction zone / Continental crust (>25 km),Evidence Credible,Andesite / Basaltic Andesite,Basalt / Picro-Basalt, , , , , , , , ,330595,330595,867678,7235923
342200,Chiquimula Volcanic Field,Pyroclastic cone(s),Unknown,Guatemala,México and Central America,Guatemala,14.83,-89.55,1192,Subduction zone / Continental crust (>25 km),Evidence Credible,Basalt / Picro-Basalt,Andesite / Basaltic Andesite, , , , , , , , ,240892,240892,412617,3740914
290090,Chirippusan [Chirip],Stratovolcano(es),1860,Japan - administered by Russia,Kuril Islands,Kuril Islands,45.338,147.92,1587,Subduction zone / Intermediate crust (15-25 km),Eruption Observed,Basalt / Picro-Basalt,Andesite / Basaltic Andesite, , , ,Dacite, , , , ,77,372,1125,4810
290150,Chirpoi,Caldera,2016,Russia,Kuril Islands,Kuril Islands,46.532,150.871,742,Subduction zone / Oceanic crust (< 15 km),Eruption Observed,Andesite / Basaltic Andesite,Basalt / Picro-Basalt,Dacite, , , , , , , ,1,1,3,491
283220,Chokaisan,Stratovolcano(es),1974,Japan,"Japan, Taiwan, Marianas",Honshu,39.099,140.049,2236,Subduction zone / Continental crust (>25 km),Eruption Observed,Andesite / Basaltic Andesite,Basalt / Picro-Basalt, , , , , , , , ,131,707,185681,2301576
306020,Ch'uga-ryong,Shield,Unknown,North Korea-South Korea,Kamchatka and Mainland Asia,Korea,38.33,127.33,452,Intraplate / Continental crust (>25 km),Evidence Uncertain,Basalt / Picro-Basalt, , , , , , , , , ,1668,23030,262911,15245593
222130,Chyulu Hills,Volcanic field,1855,Kenya,Africa and Red Sea,Africa (eastern),-2.68,37.88,2188,Rift zone / Continental crust (>25 km),Eruption Dated,Trachybasalt / Tephrite Basanite,Basalt / Picro-Basalt,Foidite, , , , , , , ,14889,14889,91280,1784980
322150,Cinnamon Butte,Pyroclastic cone(s),Unknown,United States,Canada and Western USA,USA (Oregon),43.241,-122.108,1956,Subduction zone / Continental crust (>25 km),Evidence Uncertain,Basalt / Picro-Basalt, , , , , , , , , ,113,113,913,69577
323100,Clear Lake,Volcanic field,Unknown,United States,Canada and Western USA,USA (California),38.97,-122.77,1439,Subduction zone / Continental crust (>25 km),Evidence Credible,Dacite,Andesite / Basaltic Andesite,Rhyolite,Basalt / Picro-Basalt, , , , , , ,52801,52801,71791,1059280
331030,Cleft Segment,Submarine,1986,Undersea Features,Hawaii and Pacific Ocean,Pacific Ocean (northern),44.83,-130.3,-2140,Rift zone / Oceanic crust (< 15 km),Eruption Observed,Basalt / Picro-Basalt, , , , , , , , , ,0,0,0,0
343041,Coatepeque Caldera,Caldera,Unknown,El Salvador,México and Central America,El Salvador and Honduras,13.87,-89.55,746,Subduction zone / Continental crust (>25 km),Evidence Credible,Rhyolite,Dacite,Andesite / Basaltic Andesite, , ,Trachyandesite / Basaltic Trachyandesite,Basalt / Picro-Basalt, , , ,616730,616730,1210307,6486011
331020,CoAxial Segment,Submarine,1993,Undersea Features,Hawaii and Pacific Ocean,Pacific Ocean (northern),46.52,-129.58,-2400,Rift zone / Oceanic crust (< 15 km),Eruption Observed,Basalt / Picro-Basalt, , , , , , , , , ,0,0,0,0
234050,"Cochons, Ile aux",Stratovolcano,Unknown,France,Middle East and Indian Ocean,Indian Ocean (southern),-46.1,50.23,775,Rift zone / Oceanic crust (< 15 km),Evidence Credible,Basalt / Picro-Basalt, , , , , , , , , ,0,0,0,0
341096,Cofre de Perote,Shield(s),1150,Mexico,México and Central America,Mexico,19.492,-97.15,4282,Subduction zone / Continental crust (>25 km),Eruption Dated,Andesite / Basaltic Andesite,Dacite, , , ,Basalt / Picro-Basalt,Trachybasalt / Tephrite Basanite,Trachyandesite / Basaltic Trachyandesite, , ,658,18638,885440,4907992
341040,Colima,Stratovolcano(es),2019,Mexico,México and Central America,Mexico,19.514,-103.62,3850,Subduction zone / Continental crust (>25 km),Eruption Observed,Andesite / Basaltic Andesite, , , , ,Dacite,Trachybasalt / Tephrite Basanite,Trachyandesite / Basaltic Trachyandesite,Basalt / Picro-Basalt, ,76,746,303490,1494790
211004,Colli Albani,Caldera,Unknown,Italy,Mediterranean and Western Asia,Italy,41.73,12.7,949,Subduction zone / Continental crust (>25 km),Evidence Uncertain,Foidite,Phono-tephrite /  Tephri-phonolite, , , ,Trachybasalt / Tephrite Basanite, , , , ,897039,897039,2962194,5330273
341012,Comondu-La Purisima,Volcanic field,Unknown,Mexico,México and Central America,Mexico,26,-111.92,780,Rift zone / Continental crust (>25 km),Evidence Uncertain,Trachyandesite / Basaltic Trachyandesite,Andesite / Basaltic Andesite,Basalt / Picro-Basalt, , , , , , , ,1033,1033,2365,43271
344120,Concepcion,Stratovolcano,2011,Nicaragua,México and Central America,Nicaragua,11.538,-85.622,1700,Subduction zone / Continental crust (>25 km),Eruption Observed,Andesite / Basaltic Andesite,Basalt / Picro-Basalt, , , ,Dacite, , , , ,14072,28900,92378,2266903
357090,Copahue,Stratovolcano,2019,Chile-Argentina,South America,Central Chile and Argentina,-37.856,-71.183,2953,Subduction zone / Continental crust (>25 km),Eruption Observed,Trachybasalt / Tephrite Basanite,Andesite / Basaltic Andesite,Trachyte / Trachydacite,Rhyolite, , , , , , ,88,555,3042,138414
221290,Corbetti Caldera,Caldera,Unknown,Ethiopia,Africa and Red Sea,Africa (northeastern) and Red Sea,7.193,38.39,2320,Rift zone / Continental crust (>25 km),Evidence Credible,Rhyolite,Basalt / Picro-Basalt, , , , , , , , ,565206,565206,1171948,9794061
355101,Cordon de Puntas Negras,Stratovolcano(es),Unknown,Chile,South America,"Northern Chile, Bolivia and Argentina",-23.743,-67.534,5852,Subduction zone / Continental crust (>25 km),Evidence Credible,Andesite / Basaltic Andesite,Dacite, , , , , , , , ,0,0,217,5798
382002,Corvo,Stratovolcano,Unknown,Portugal,Atlantic Ocean,Azores,39.699,-31.111,718,Intraplate / Oceanic crust (< 15 km),Evidence Credible,Basalt / Picro-Basalt,Andesite / Basaltic Andesite, , , , , , , , ,516,516,1517,5340
344010,Cosiguina,Stratovolcano,1859,Nicaragua,México and Central America,Nicaragua,12.98,-87.57,872,Subduction zone / Continental crust (>25 km),Eruption Observed,Andesite / Basaltic Andesite,Basalt / Picro-Basalt, , , , , , , , ,143,4114,18876,2179830
352050,Cotopaxi,Stratovolcano,2016,Ecuador,South America,Ecuador,-0.677,-78.436,5911,Subduction zone / Continental crust (>25 km),Eruption Observed,Andesite / Basaltic Andesite,Dacite,Rhyolite, , , , , , , ,251,7299,152139,3631492
358025,Crater Basalt Volcanic Field,Pyroclastic cone(s),Unknown,Argentina,South America,Southern Chile and Argentina,-42.018,-70.194,1344,Intraplate / Continental crust (>25 km),Evidence Credible,Trachybasalt / Tephrite Basanite, , , , ,Basalt / Picro-Basalt, , , , ,448,448,1140,20539
322160,Crater Lake,Caldera,-2850,United States,Canada and Western USA,USA (Oregon),42.93,-122.12,2487,Subduction zone / Continental crust (>25 km),Eruption Dated,Dacite,Andesite / Basaltic Andesite, , , ,Basalt / Picro-Basalt, , , , ,52,52,366,272674
324020,Craters of the Moon,Pyroclastic cone(s),-130,United States,Canada and Western USA,USA (Idaho),43.42,-113.5,2005,Rift zone / Continental crust (>25 km),Eruption Dated,Basalt / Picro-Basalt,Trachybasalt / Tephrite Basanite,Trachyandesite / Basaltic Trachyandesite, , , , , , , ,15,15,1459,93300
272010,Cuernos de Negros,Complex,Unknown,Philippines,Philippines and SE Asia,Central Philippines,9.25,123.17,1862,Subduction zone / Continental crust (>25 km),Unrest / Holocene,Andesite / Basaltic Andesite,Dacite,Basalt / Picro-Basalt, , , , , , , ,1458,39681,531644,2960980
352003,Cuicocha,Caldera,650,Ecuador,South America,Ecuador,0.308,-78.364,3246,Subduction zone / Continental crust (>25 km),Eruption Dated,Dacite, , , , , , , , , ,178815,178815,364146,3193683
342111,Cuilapa-Barbarena,Volcanic field,Unknown,Guatemala,México and Central America,Guatemala,14.33,-90.4,1454,Subduction zone / Continental crust (>25 km),Evidence Credible,Basalt / Picro-Basalt,Andesite / Basaltic Andesite, , , , , , , , ,119602,119602,987252,6943297
351100,Cumbal,Stratovolcano,1926,Colombia,South America,Colombia,0.95,-77.87,4764,Subduction zone / Continental crust (>25 km),Eruption Observed,Andesite / Basaltic Andesite,Dacite, , , , , , , , ,1405,10206,244853,1800919
341098,"Cumbres,  Las",Stratovolcano,-3920,Mexico,México and Central America,Mexico,19.15,-97.27,3940,Subduction zone / Continental crust (>25 km),Eruption Dated,Andesite / Basaltic Andesite,Dacite,Rhyolite, , , , , , , ,113,1923,315004,6365085
221113,Dabbahu,Stratovolcano,2005,Ethiopia,Africa and Red Sea,Africa (northeastern) and Red Sea,12.595,40.48,1401,Rift zone / Intermediate crust (15-25 km),Eruption Observed,Basalt / Picro-Basalt,Rhyolite,Trachyandesite / Basaltic Trachyandesite,Trachybasalt / Tephrite Basanite,Trachyte / Trachydacite, , , , , ,204,1150,36494,540735
221114,Dabbayra,Shield,Unknown,Ethiopia,Africa and Red Sea,Africa (northeastern) and Red Sea,12.38,40.07,1302,Rift zone / Intermediate crust (15-25 km),Evidence Credible,Basalt / Picro-Basalt,Rhyolite, , , , , , , , ,804,3324,47053,1946949
252040,Dakataua,Caldera,1895,Papua New Guinea,Melanesia and Australia,New Britain,-5.094,150.094,408,Subduction zone / Continental crust (>25 km),Eruption Dated,Andesite / Basaltic Andesite,Dacite,Basalt / Picro-Basalt, , , , , , , ,1147,1147,3743,113954
221141,Dama Ali,Shield,1631,Ethiopia,Africa and Red Sea,Africa (northeastern) and Red Sea,11.28,41.63,1068,Rift zone / Intermediate crust (15-25 km),Eruption Observed,Basalt / Picro-Basalt,Trachyte / Trachydacite,Rhyolite, , , , , , , ,24,1944,40013,353949
232010,Damavand,Stratovolcano,-5350,Iran,Middle East and Indian Ocean,Middle East (western),35.951,52.109,5670,Intraplate / Continental crust (>25 km),Eruption Dated,Trachyandesite / Basaltic Trachyandesite, , , , ,Basalt / Picro-Basalt,Trachyte / Trachydacite, , , ,27,2295,59171,11945981
303040,Dariganga Volcanic Field,Pyroclastic cone(s),Unknown,Mongolia,Kamchatka and Mainland Asia,Mongolia,45.754,114.279,1778,Intraplate / Continental crust (>25 km),Evidence Credible,Basalt / Picro-Basalt,Trachybasalt / Tephrite Basanite,Foidite, , , , , , , ,18247,18247,18247,25280
353030,Darwin,Shield,1813,Ecuador,South America,Galapagos Islands,-0.18,-91.28,1330,Rift zone / Oceanic crust (< 15 km),Eruption Dated,Basalt / Picro-Basalt, , , , ,Andesite / Basaltic Andesite, , , , ,190,190,343,2366
261210,"Daun, Bukit",Stratovolcano(es),Unknown,Indonesia,Indonesia,Sumatra,-3.38,102.37,2467,Subduction zone / Continental crust (>25 km),Unrest / Holocene,Basalt / Picro-Basalt,Andesite / Basaltic Andesite, , , , , , , , ,4088,42410,425096,2318233
322100,Davis Lake,Volcanic field,-2790,United States,Canada and Western USA,USA (Oregon),43.57,-121.82,2163,Subduction zone / Continental crust (>25 km),Eruption Dated,Andesite / Basaltic Andesite, , , , , , , , , ,1440,1440,7483,164597
253060,Dawson Strait Group,Volcanic field,1350,Papua New Guinea,Melanesia and Australia,New Guinea and D'Entrecasteaux Islands,-9.62,150.88,500,Subduction zone / Continental crust (>25 km),Eruption Dated,Rhyolite,Trachyte / Trachydacite,Trachyandesite / Basaltic Trachyandesite, , , , , , , ,5388,5388,7721,80476
390030,Deception Island,Caldera,1970,Antarctica,Antarctica,Antarctica and South Sandwich Islands,-63.001,-60.652,602,Intraplate / Continental crust (>25 km),Eruption Observed,Basalt / Picro-Basalt,Trachybasalt / Tephrite Basanite,Trachyandesite / Basaltic Trachyandesite,Trachyte / Trachydacite, ,Dacite, , , , ,0,0,0,0
261230,Dempo,Stratovolcano(es),2017,Indonesia,Indonesia,Sumatra,-4.016,103.121,3142,Subduction zone / Continental crust (>25 km),Eruption Observed,Andesite / Basaltic Andesite, , , , , , , , , ,124,9613,96058,2307584
357050,Descabezado Grande,Stratovolcano(es),1933,Chile,South America,Central Chile and Argentina,-35.58,-70.75,3953,Subduction zone / Continental crust (>25 km),Eruption Observed,Andesite / Basaltic Andesite,Dacite, , , , , , , , ,39,142,3454,704116
322120,Devils Garden,Volcanic field,Unknown,United States,Canada and Western USA,USA (Oregon),43.512,-120.861,1698,Rift zone / Continental crust (>25 km),Evidence Uncertain,Basalt / Picro-Basalt, , , , , , , , , ,51,51,287,162601
231120,"Dhamar, Harras of",Volcanic field,1937,Yemen,Middle East and Indian Ocean,Middle East (southern),14.57,44.67,3500,Intraplate / Continental crust (>25 km),Eruption Observed,Basalt / Picro-Basalt,Rhyolite, , , , , , , , ,791276,791276,791276,5778965
360080,"Diables, Morne aux",Lava dome(s),Unknown,Dominica,West Indies,West Indies,15.612,-61.43,861,Subduction zone / Oceanic crust (< 15 km),Evidence Credible,Andesite / Basaltic Andesite,Dacite, , , , , , , , ,8048,12036,33148,479470
360090,"Diablotins, Morne",Stratovolcano,Unknown,Dominica,West Indies,West Indies,15.503,-61.397,1430,Subduction zone / Oceanic crust (< 15 km),Evidence Uncertain,Andesite / Basaltic Andesite,Dacite,Basalt / Picro-Basalt, , , , , , , ,423,9775,69935,513702
322170,Diamond Craters,Volcanic field,-5610,United States,Canada and Western USA,USA (Oregon),43.1,-118.75,1435,Rift zone / Continental crust (>25 km),Eruption Dated,Basalt / Picro-Basalt, , , , , , , , , ,66,66,136,6969
263200,Dieng Volcanic Complex,Complex,2018,Indonesia,Indonesia,Java,-7.2,109.879,2565,Subduction zone / Continental crust (>25 km),Eruption Observed,Andesite / Basaltic Andesite,Basalt / Picro-Basalt, , , , , , , , ,1092929,1092929,1886942,24381814
300022,Diky Greben,Lava dome(s),350,Russia,Kamchatka and Mainland Asia,Kamchatka Peninsula,51.452,156.978,1040,Subduction zone / Continental crust (>25 km),Eruption Dated,Dacite,Andesite / Basaltic Andesite,Rhyolite, , , , , , , ,0,56,544,4568
357067,Domuyo,Stratovolcano,Unknown,Argentina,South America,Central Chile and Argentina,-36.638,-70.432,4702,Subduction zone / Continental crust (>25 km),Evidence Uncertain,Dacite, , , , , , , , , ,1,34,1425,30006
221100,Dubbi,Stratovolcano,1861,Eritrea,Africa and Red Sea,Africa (northeastern) and Red Sea,13.579,41.809,1625,Rift zone / Intermediate crust (15-25 km),Eruption Observed,Basalt / Picro-Basalt,Trachybasalt / Tephrite Basanite, , , ,Trachyandesite / Basaltic Trachyandesite,Trachyte / Trachydacite,Rhyolite, , ,0,0,18,14867
268010,Dukono,Complex,2020,Indonesia,Indonesia,Halmahera,1.693,127.894,1229,Subduction zone / Oceanic crust (< 15 km),Eruption Observed,Andesite / Basaltic Andesite,Trachyte / Trachydacite,Basalt / Picro-Basalt, , , , , , , ,1575,3348,101506,393070
341022,Durango Volcanic Field,Pyroclastic cone(s),Unknown,Mexico,México and Central America,Mexico,24.15,-104.45,2075,Subduction zone / Continental crust (>25 km),Evidence Credible,Trachybasalt / Tephrite Basanite,Basalt / Picro-Basalt, , , , , , , , ,571282,571282,571282,797133
300110,Dzenzursky,Compound,Unknown,Russia,Kamchatka and Mainland Asia,Kamchatka Peninsula,53.637,158.922,2285,Subduction zone / Continental crust (>25 km),Evidence Credible,Andesite / Basaltic Andesite,Dacite, , , , , , , , ,0,0,110,250934
284201,East Diamante,Submarine,Unknown,United States,"Japan, Taiwan, Marianas","Izu, Volcano, and Mariana Islands",15.93,145.67,-127,Subduction zone / Crustal thickness unknown,Unrest / Holocene,Dacite, , , , , , , , , ,0,0,0,76403
356011,Easter Island,Shield(s),Unknown,Chile,South America,Pacific Ocean (Chilean Islands),-27.15,-109.38,511,Rift zone / Oceanic crust (< 15 km),Evidence Credible,Basalt / Picro-Basalt,Trachyandesite / Basaltic Trachyandesite,Trachybasalt / Tephrite Basanite,Rhyolite, ,Trachyte / Trachydacite, , , , ,698,4029,4091,4091
290380,Ebeko,Stratovolcano,2020,Russia,Kuril Islands,Kuril Islands,50.686,156.014,1103,Subduction zone / Continental crust (>25 km),Eruption Observed,Andesite / Basaltic Andesite, , , , , , , , , ,0,267,1076,3098
222080,"Eburru, Ol Doinyo",Complex,Unknown,Kenya,Africa and Red Sea,Africa (eastern),-0.65,36.22,2856,Rift zone / Continental crust (>25 km),Evidence Credible,Rhyolite,Phonolite,Trachyte / Trachydacite, , , , , , , ,460,9365,323529,7992639
353011,Ecuador,Shield,1150,Ecuador,South America,Galapagos Islands,-0.02,-91.546,790,Rift zone / Oceanic crust (< 15 km),Eruption Dated,Basalt / Picro-Basalt, , , , , , , , , ,135,135,193,894
315040,Edgecumbe,Stratovolcano(es),-2220,United States,Alaska,Alaska (eastern),57.05,-135.75,970,Intraplate / Continental crust (>25 km),Eruption Dated,Andesite / Basaltic Andesite,Basalt / Picro-Basalt,Rhyolite,Dacite, , , , , , ,0,0,6613,7074
320060,Edziza,Stratovolcano,950,Canada,Canada and Western USA,Canada,57.72,-130.63,2786,Intraplate / Continental crust (>25 km),Eruption Dated,Trachyte / Trachydacite,Basalt / Picro-Basalt,Trachybasalt / Tephrite Basanite,Rhyolite, ,Trachyandesite / Basaltic Trachyandesite, , , , ,0,0,0,898
214010,Elbrus,Stratovolcano,50,Russia,Mediterranean and Western Asia,Western Asia,43.351,42.442,5642,Intraplate / Continental crust (>25 km),Eruption Dated,Dacite,Andesite / Basaltic Andesite,Rhyolite,Trachyte / Trachydacite, , , , , , ,26,195,5718,1469719
300590,Elovsky,Shield(s),-7550,Russia,Kamchatka and Mainland Asia,Kamchatka Peninsula,57.55,160.53,1381,Subduction zone / Continental crust (>25 km),Eruption Dated,Basalt / Picro-Basalt, , , , , , , , , ,0,0,44,2704
312020,Emmons Lake,Caldera,Unknown,United States,Alaska,Alaska Peninsula,55.341,-162.073,1436,Subduction zone / Continental crust (>25 km),Evidence Credible,Andesite / Basaltic Andesite,Basalt / Picro-Basalt,Rhyolite, , , , , , , ,0,0,686,1199
222051,Emuruangogolak,Shield,1910,Kenya,Africa and Red Sea,Africa (eastern),1.5,36.33,1285,Rift zone / Continental crust (>25 km),Eruption Dated,Trachyte / Trachydacite,Basalt / Picro-Basalt, , , , , , , , ,80,252,4448,445177
331010,Endeavour Segment,Submarine,-3490,Canada,Hawaii and Pacific Ocean,Pacific Ocean (northern),47.95,-129.1,-2050,Rift zone / Oceanic crust (< 15 km),Eruption Dated,Basalt / Picro-Basalt, , , , , , , , , ,0,0,0,0
257060,Epi,Stratovolcano(es),2004,Vanuatu,Melanesia and Australia,Vanuatu,-16.68,168.37,833,Subduction zone / Intermediate crust (15-25 km),Eruption Observed,Basalt / Picro-Basalt,Andesite / Basaltic Andesite,Dacite, , , , , , , ,0,170,7819,52827
213010,Erciyes Dagi,Stratovolcano,-6880,Turkey,Mediterranean and Western Asia,Turkey,38.531,35.447,3864,Intraplate / Continental crust (>25 km),Eruption Dated,Dacite,Andesite / Basaltic Andesite,Rhyolite,Trachyandesite / Basaltic Trachyandesite,Trachyte / Trachydacite, , , , , ,1715,8036,767813,1817720
390020,Erebus,Stratovolcano,2020,Antarctica,Antarctica,Antarctica and South Sandwich Islands,-77.53,167.17,3794,Intraplate / Continental crust (>25 km),Eruption Observed,Phonolite,Phono-tephrite /  Tephri-phonolite,Trachybasalt / Tephrite Basanite, , ,Trachyte / Trachydacite,Trachyandesite / Basaltic Trachyandesite, , , ,0,0,0,0
221080,Erta Ale,Shield,2020,Ethiopia,Africa and Red Sea,Africa (northeastern) and Red Sea,13.6,40.67,613,Rift zone / Intermediate crust (15-25 km),Eruption Observed,Basalt / Picro-Basalt,Andesite / Basaltic Andesite, , , , , , , , ,2685,2796,8857,235083
285011,Esan,Lava dome(s),1874,Japan,"Japan, Taiwan, Marianas",Hokkaido,41.805,141.166,618,Subduction zone / Continental crust (>25 km),Eruption Observed,Andesite / Basaltic Andesite,Dacite, , , , , , , , ,1734,5831,33197,916560
374020,Esjufjoll,Stratovolcano,Unknown,Iceland,Iceland and Arctic Ocean,Iceland (southeastern),64.25,-16.583,1620,Rift zone / Oceanic crust (< 15 km),Unrest / Holocene,Basalt / Picro-Basalt, , , , ,Rhyolite, , , , ,0,0,0,2564
344131,Esteli,Fissure vent(s),Unknown,Nicaragua,México and Central America,Nicaragua,13.17,-86.4,899,Subduction zone / Continental crust (>25 km),Evidence Uncertain,Basalt / Picro-Basalt, , , , , , , , , ,133804,133804,246244,2574633
211060,Etna,Stratovolcano(es),2020,Italy,Mediterranean and Western Asia,Italy,37.748,14.999,3295,Subduction zone / Continental crust (>25 km),Eruption Observed,Trachybasalt / Tephrite Basanite,Trachyandesite / Basaltic Trachyandesite,Basalt / Picro-Basalt, , ,Trachyte / Trachydacite,Phono-tephrite /  Tephri-phonolite, , , ,78,3291,1016540,3052770
290050,Etorofu-Atosanupuri [Atosanupuri],Stratovolcano,1932,Japan - administered by Russia,Kuril Islands,Kuril Islands,44.808,147.131,1206,Subduction zone / Intermediate crust (15-25 km),Eruption Observed,Andesite / Basaltic Andesite,Basalt / Picro-Basalt, , , , , , , , ,1,289,644,4311
290070,Etorofu-Yakeyama [Grozny Group],Complex(es),2013,Japan - administered by Russia,Kuril Islands,Kuril Islands,45.012,147.871,1158,Subduction zone / Intermediate crust (15-25 km),Eruption Observed,Andesite / Basaltic Andesite, , , , , , , , , ,0,39,2417,6361
372020,Eyjafjallajokull,Stratovolcano,2010,Iceland,Iceland and Arctic Ocean,Iceland (southern),63.633,-19.633,1651,Rift zone / Oceanic crust (< 15 km),Eruption Observed,Basalt / Picro-Basalt,Trachyandesite / Basaltic Trachyandesite,Trachybasalt / Tephrite Basanite,Trachyte / Trachydacite, , , , , , ,0,4,786,18516
284140,Farallon de Pajaros,Stratovolcano,1967,United States,"Japan, Taiwan, Marianas","Izu, Volcano, and Mariana Islands",20.546,144.893,337,Subduction zone / Crustal thickness unknown,Eruption Observed,Andesite / Basaltic Andesite, , , , , , , , , ,0,0,0,0
382010,Fayal,Stratovolcano,1958,Portugal,Atlantic Ocean,Azores,38.6,-28.73,1043,Rift zone / Oceanic crust (< 15 km),Eruption Observed,Andesite / Basaltic Andesite,Basalt / Picro-Basalt,Trachybasalt / Tephrite Basanite,Trachyte / Trachydacite,Trachyandesite / Basaltic Trachyandesite, , , , , ,1514,13757,24414,50663
221190,Fentale,Stratovolcano,1820,Ethiopia,Africa and Red Sea,Africa (northeastern) and Red Sea,8.975,39.93,2007,Rift zone / Continental crust (>25 km),Eruption Observed,Rhyolite,Trachyte / Trachydacite,Trachybasalt / Tephrite Basanite,Andesite / Basaltic Andesite, , , , , , ,1919,14201,169357,3482286
311350,Fisher,Stratovolcano,1830,United States,Alaska,Aleutian Islands,54.65,-164.43,1112,Subduction zone / Continental crust (>25 km),Eruption Observed,Andesite / Basaltic Andesite,Dacite,Basalt / Picro-Basalt,Trachyte / Trachydacite, , , , , , ,0,0,0,25
342140,Flores,Volcanic field,Unknown,Guatemala,México and Central America,Guatemala,14.308,-89.992,1600,Subduction zone / Continental crust (>25 km),Evidence Credible,Basalt / Picro-Basalt, , , , , , , , , ,205145,205145,397357,7489933
382001,Flores,Stratovolcano(es),-950,Portugal,Atlantic Ocean,Azores,39.462,-31.216,914,Intraplate / Continental crust (>25 km),Eruption Dated,Basalt / Picro-Basalt,Trachybasalt / Tephrite Basanite,Trachyandesite / Basaltic Trachyandesite,Trachyte / Trachydacite, ,Phono-tephrite /  Tephri-phonolite, , , , ,1054,4560,5825,5865
384010,Fogo,Stratovolcano,2015,Cape Verde,Atlantic Ocean,Cape Verde Islands,14.95,-24.35,2829,Intraplate / Intermediate crust (15-25 km),Eruption Observed,Foidite,Trachybasalt / Tephrite Basanite,Phonolite, , , , , , , ,189,13254,37650,267298
223001,Fort Portal,Tuff cone(s),-2120,Uganda,Africa and Red Sea,Africa (central),0.7,30.25,1615,Rift zone / Continental crust (>25 km),Eruption Dated,Foidite, , , , , , , , , ,242914,242914,498815,4167189
320010,Fort Selkirk,Volcanic field,Unknown,Canada,Canada and Western USA,Canada,62.93,-137.38,1239,Intraplate / Continental crust (>25 km),Evidence Uncertain,Trachybasalt / Tephrite Basanite,Basalt / Picro-Basalt,Foidite, , , , , , , ,6,6,6,491
233020,"Fournaise, Piton de la",Shield,2020,France,Middle East and Indian Ocean,Indian Ocean (western),-21.244,55.708,2632,Intraplate / Oceanic crust (< 15 km),Eruption Observed,Basalt / Picro-Basalt,Trachybasalt / Tephrite Basanite, , , , , , , , ,55859,55859,246792,717820
373070,Fremrinamar,Stratovolcano,-1200,Iceland,Iceland and Arctic Ocean,Iceland (northeastern),65.416,-16.666,970,Rift zone / Oceanic crust (< 15 km),Eruption Dated,Basalt / Picro-Basalt,Rhyolite, , , , , , , , ,0,0,476,19143
312010,Frosty,Stratovolcano(es),Unknown,United States,Alaska,Alaska Peninsula,55.067,-162.835,1728,Subduction zone / Continental crust (>25 km),Evidence Credible,Andesite / Basaltic Andesite,Basalt / Picro-Basalt, , , , , , , , ,0,0,67,1153
342090,Fuego,Stratovolcano(es),2020,Guatemala,México and Central America,Guatemala,14.473,-90.88,3763,Subduction zone / Continental crust (>25 km),Eruption Observed,Basalt / Picro-Basalt,Andesite / Basaltic Andesite, , , ,Trachyandesite / Basaltic Trachyandesite, , , , ,1373,54332,1016339,7677809
383050,Fuerteventura,Fissure vent(s),Unknown,Spain,Atlantic Ocean,Canary Islands,28.358,-14.02,529,Intraplate / Intermediate crust (15-25 km),Evidence Credible,Basalt / Picro-Basalt,Trachybasalt / Tephrite Basanite,Foidite,Trachyandesite / Basaltic Trachyandesite, , , , , , ,1432,8752,52038,226781
283030,Fujisan,Stratovolcano,1708,Japan,"Japan, Taiwan, Marianas",Honshu,35.361,138.728,3776,Subduction zone / Continental crust (>25 km),Eruption Observed,Basalt / Picro-Basalt, , , , ,Andesite / Basaltic Andesite,Dacite, , , ,570,1759,906969,25022187
282091,Fukue,Shield(s),-400,Japan,"Japan, Taiwan, Marianas",Ryukyu Islands and Kyushu,32.657,128.849,315,Subduction zone / Continental crust (>25 km),Eruption Dated,Basalt / Picro-Basalt, , , , , , , , , ,18334,40407,61450,704523
382100,Furnas,Stratovolcano,1630,Portugal,Atlantic Ocean,Azores,37.77,-25.32,805,Rift zone / Oceanic crust (< 15 km),Eruption Observed,Trachyte / Trachydacite,Basalt / Picro-Basalt,Trachybasalt / Tephrite Basanite,Trachyandesite / Basaltic Trachyandesite, , , , , , ,1333,7310,87865,153182
221150,Gabillema,Stratovolcano,Unknown,Ethiopia,Africa and Red Sea,Africa (northeastern) and Red Sea,11.08,41.27,1459,Rift zone / Intermediate crust (15-25 km),Evidence Credible,Rhyolite,Basalt / Picro-Basalt,Trachybasalt / Tephrite Basanite,Trachyandesite / Basaltic Trachyandesite, , , , , , ,248,772,12626,373968
221050,Gada Ale,Stratovolcano,Unknown,Ethiopia,Africa and Red Sea,Africa (northeastern) and Red Sea,13.975,40.408,287,Rift zone / Intermediate crust (15-25 km),Evidence Credible,Basalt / Picro-Basalt,Trachyandesite / Basaltic Trachyandesite,Trachyte / Trachydacite, , , , , , , ,101,605,4827,618972
334070,Galapagos Rift,Submarine,1996,Undersea Features,Hawaii and Pacific Ocean,Pacific Ocean (eastern),0.792,-86.15,-2430,Rift zone / Oceanic crust (< 15 km),Eruption Observed,Basalt / Picro-Basalt, , , , , , , , , ,0,0,0,0
351080,Galeras,Complex,2014,Colombia,South America,Colombia,1.22,-77.37,4276,Subduction zone / Continental crust (>25 km),Eruption Observed,Andesite / Basaltic Andesite, , , , ,Dacite, , , , ,705,120817,630777,1700248
255062,Gallego,Volcanic field,Unknown,Solomon Islands,Melanesia and Australia,Bougainville and Solomon Islands,-9.35,159.73,1000,Subduction zone / Crustal thickness unknown,Evidence Uncertain,Andesite / Basaltic Andesite, , , , , , , , , ,10017,10017,81587,169626
263140,Galunggung,Stratovolcano,1984,Indonesia,Indonesia,Java,-7.25,108.058,2168,Subduction zone / Continental crust (>25 km),Eruption Observed,Basalt / Picro-Basalt,Andesite / Basaltic Andesite, , , ,Rhyolite, , , , ,4781,66495,2382939,23897342
268060,Gamalama,Stratovolcano(es),2018,Indonesia,Indonesia,Halmahera,0.8,127.33,1715,Subduction zone / Oceanic crust (< 15 km),Eruption Observed,Andesite / Basaltic Andesite, , , , ,Dacite, , , , ,103429,204820,308691,536972
300210,Gamchen,Complex,-550,Russia,Kamchatka and Mainland Asia,Kamchatka Peninsula,54.974,160.703,2539,Subduction zone / Continental crust (>25 km),Eruption Dated,Basalt / Picro-Basalt,Andesite / Basaltic Andesite, , , , , , , , ,0,0,382,3829
268040,Gamkonora,Stratovolcano,2007,Indonesia,Indonesia,Halmahera,1.38,127.53,1635,Subduction zone / Oceanic crust (< 15 km),Eruption Observed,Andesite / Basaltic Andesite, , , , , , , , , ,3354,12744,61376,627128
320200,Garibaldi,Stratovolcano,-8060,Canada,Canada and Western USA,Canada,49.85,-123,2678,Subduction zone / Continental crust (>25 km),Eruption Dated,Dacite,Andesite / Basaltic Andesite, , , , , , , , ,0,22,16058,2264818
320190,Garibaldi Lake,Volcanic field,Unknown,Canada,Canada and Western USA,Canada,49.933,-123,2316,Subduction zone / Continental crust (>25 km),Evidence Credible,Andesite / Basaltic Andesite,Basalt / Picro-Basalt, , , ,Dacite,Trachyandesite / Basaltic Trachyandesite, , , ,6635,6635,28109,2218089
252030,Garove,Stratovolcano,Unknown,Papua New Guinea,Melanesia and Australia,New Britain,-4.687,149.511,368,Subduction zone / Oceanic crust (< 15 km),Evidence Credible,Andesite / Basaltic Andesite,Dacite,Basalt / Picro-Basalt, , ,Rhyolite, , , , ,4259,5887,6388,18704
252060,Garua Harbour,Volcanic field,Unknown,Papua New Guinea,Melanesia and Australia,New Britain,-5.3,150.07,565,Subduction zone / Continental crust (>25 km),Evidence Uncertain,Rhyolite,Andesite / Basaltic Andesite, , , , , , , , ,12090,12090,44354,123676
257020,Gaua,Stratovolcano,2011,Vanuatu,Melanesia and Australia,Vanuatu,-14.27,167.5,797,Subduction zone / Intermediate crust (15-25 km),Eruption Observed,Andesite / Basaltic Andesite,Basalt / Picro-Basalt, , , ,Dacite, , , , ,166,1200,2848,8834
221230,Gedamsa,Caldera,Unknown,Ethiopia,Africa and Red Sea,Africa (northeastern) and Red Sea,8.357,39.188,1873,Rift zone / Continental crust (>25 km),Evidence Credible,Rhyolite,Trachyte / Trachydacite, , , ,Basalt / Picro-Basalt, , , , ,216008,216008,744211,8000105
263060,Gede-Pangrango,Stratovolcano(es),1957,Indonesia,Indonesia,Java,-6.77,106.965,3008,Subduction zone / Continental crust (>25 km),Eruption Observed,Andesite / Basaltic Andesite,Basalt / Picro-Basalt, , , , , , , , ,2500,154390,2315469,40640105
353081,Genovesa,Shield,Unknown,Ecuador,South America,Galapagos Islands,0.32,-89.958,64,Rift zone / Oceanic crust (< 15 km),Evidence Credible,Basalt / Picro-Basalt, , , , , , , , , ,197,197,197,2665
214070,Ghegham Volcanic Ridge,Volcanic field,-1900,Armenia,Mediterranean and Western Asia,Western Asia,40.283,45,3597,Intraplate / Continental crust (>25 km),Eruption Dated,Andesite / Basaltic Andesite,Rhyolite,Dacite, , , , , , , ,1265153,1265153,1265153,3151168
321020,Glacier Peak,Stratovolcano,1700,United States,Canada and Western USA,USA (Washington),48.112,-121.113,3213,Subduction zone / Continental crust (>25 km),Eruption Dated,Dacite,Andesite / Basaltic Andesite, , , ,Basalt / Picro-Basalt, , , , ,0,0,23,1340896
341097,"Gloria, La",Volcanic field,Unknown,Mexico,México and Central America,Mexico,19.33,-97.25,3500,Subduction zone / Continental crust (>25 km),Evidence Credible,Andesite / Basaltic Andesite,Trachyandesite / Basaltic Trachyandesite,Basalt / Picro-Basalt, , ,Dacite, , , , ,108512,108512,290739,5697562
323170,Golden Trout Creek,Volcanic field,-5550,United States,Canada and Western USA,USA (California),36.358,-118.32,2886,Rift zone / Continental crust (>25 km),Eruption Dated,Basalt / Picro-Basalt, , , , , , , , , ,3,3,273,461496
253041,Goodenough,Volcanic field,Unknown,Papua New Guinea,Melanesia and Australia,New Guinea and D'Entrecasteaux Islands,-9.48,150.35,220,Subduction zone / Continental crust (>25 km),Evidence Credible,Andesite / Basaltic Andesite, , , , , , , , , ,7639,7639,17932,127955
300070,Gorely,Caldera,2010,Russia,Kamchatka and Mainland Asia,Kamchatka Peninsula,52.559,158.03,1799,Subduction zone / Continental crust (>25 km),Eruption Observed,Basalt / Picro-Basalt,Andesite / Basaltic Andesite,Dacite, , , , , , , ,0,0,19,250293
382040,Graciosa,Stratovolcano,-1950,Portugal,Atlantic Ocean,Azores,39.02,-27.97,402,Rift zone / Oceanic crust (< 15 km),Eruption Dated,Basalt / Picro-Basalt,Andesite / Basaltic Andesite,Trachyte / Trachydacite, , , , , , , ,2500,5941,6153,96656
383040,Gran Canaria,Fissure vent(s),40,Spain,Atlantic Ocean,Canary Islands,28,-15.58,1950,Intraplate / Intermediate crust (15-25 km),Eruption Dated,Trachybasalt / Tephrite Basanite,Phono-tephrite /  Tephri-phonolite,Phonolite,Trachyte / Trachydacite,Basalt / Picro-Basalt, , , , , ,1101,8049,697199,1119998
344101,Granada,Fissure vent(s),Unknown,Nicaragua,México and Central America,Nicaragua,11.92,-85.98,300,Subduction zone / Continental crust (>25 km),Evidence Credible,Basalt / Picro-Basalt, , , , ,Dacite, , , , ,105952,137880,678798,2722372
371060,Grimsnes,Crater rows,-3500,Iceland,Iceland and Arctic Ocean,Iceland (southwestern),64.05,-20.883,200,Rift zone / Oceanic crust (< 15 km),Eruption Dated,Basalt / Picro-Basalt, , , , , , , , , ,6253,6253,11236,197798
373010,Grimsvotn,Caldera,2011,Iceland,Iceland and Arctic Ocean,Iceland (northeastern),64.416,-17.316,1719,Rift zone / Oceanic crust (< 15 km),Eruption Observed,Basalt / Picro-Basalt, , , , , , , , , ,0,0,0,1736
352020,Guagua Pichincha,Stratovolcano,2002,Ecuador,South America,Ecuador,-0.171,-78.598,4784,Subduction zone / Continental crust (>25 km),Eruption Observed,Andesite / Basaltic Andesite,Dacite, , , , , , , , ,449,32488,2064475,3581801
355093,Guayaques,Lava dome(s),Unknown,Chile-Bolivia,South America,"Northern Chile, Bolivia and Argentina",-22.895,-67.566,5598,Subduction zone / Continental crust (>25 km),Evidence Credible,Dacite,Andesite / Basaltic Andesite, , , , , , , , ,2,26,408,9770
343052,Guazapa,Stratovolcano,Unknown,El Salvador,México and Central America,El Salvador and Honduras,13.9,-89.12,1438,Subduction zone / Continental crust (>25 km),Evidence Uncertain,Basalt / Picro-Basalt, , , , , , , , , ,6492,94131,2488228,6800406
221124,Gufa,Volcanic field,Unknown,Eritrea-Djibouti,Africa and Red Sea,Africa (northeastern) and Red Sea,12.55,42.53,600,Rift zone / Intermediate crust (15-25 km),Evidence Credible,Basalt / Picro-Basalt, , , , , , , , , ,1651,1651,6301,186649
263130,Guntur,Complex,1847,Indonesia,Indonesia,Java,-7.143,107.84,2249,Subduction zone / Continental crust (>25 km),Eruption Observed,Andesite / Basaltic Andesite,Basalt / Picro-Basalt, , , , , , , , ,4652,218012,3412038,24486191
284050,Hachijojima,Stratovolcano(es),1606,Japan,"Japan, Taiwan, Marianas","Izu, Volcano, and Mariana Islands",33.137,139.766,854,Subduction zone / Oceanic crust (< 15 km),Eruption Observed,Basalt / Picro-Basalt,Andesite / Basaltic Andesite, , , , , , , , ,11275,13560,13564,14082
283250,Hachimantai,Stratovolcano,-5350,Japan,"Japan, Taiwan, Marianas",Honshu,39.958,140.854,1613,Subduction zone / Continental crust (>25 km),Eruption Dated,Andesite / Basaltic Andesite,Basalt / Picro-Basalt,Dacite, , , , , , , ,268,1261,89833,3131126
275001,Hainan Volcanic Field,Pyroclastic cone(s),1933,China,Philippines and SE Asia,Southeast Asia,19.905,110.229,196,Intraplate / Continental crust (>25 km),Eruption Observed,Basalt / Picro-Basalt, , , , , , , , , ,1731229,1731229,1731229,6213231
283280,Hakkodasan,Stratovolcano(es),1550,Japan,"Japan, Taiwan, Marianas",Honshu,40.659,140.877,1585,Subduction zone / Continental crust (>25 km),Eruption Dated,Andesite / Basaltic Andesite,Dacite,Basalt / Picro-Basalt,Rhyolite, , , , , , ,225,730,476624,1921667
283020,Hakoneyama,Complex,2015,Japan,"Japan, Taiwan, Marianas",Honshu,35.233,139.021,1438,Subduction zone / Continental crust (>25 km),Eruption Dated,Andesite / Basaltic Andesite,Basalt / Picro-Basalt,Dacite, , , , , , , ,14140,53755,1543563,30282197
283050,Hakusan,Stratovolcano,1659,Japan,"Japan, Taiwan, Marianas",Honshu,36.155,136.771,2702,Subduction zone / Continental crust (>25 km),Eruption Observed,Andesite / Basaltic Andesite,Dacite, , , , , , , , ,474,807,63965,5959200
332060,Haleakala,Shield,1750,United States,Hawaii and Pacific Ocean,Hawaiian Islands,20.708,-156.25,3055,Intraplate / Oceanic crust (< 15 km),Eruption Dated,Basalt / Picro-Basalt,Trachybasalt / Tephrite Basanite, , , , , , , , ,26074,26074,65398,157582
306040,Halla,Shield,1007,South Korea,Kamchatka and Mainland Asia,Korea,33.361,126.53,1919,Intraplate / Continental crust (>25 km),Eruption Observed,Basalt / Picro-Basalt,Trachybasalt / Tephrite Basanite,Trachyandesite / Basaltic Trachyandesite, , ,Trachyte / Trachydacite, , , , ,134,2653,482766,543082
221022,Hanish,Shield,Unknown,Yemen,Africa and Red Sea,Africa (northeastern) and Red Sea,13.72,42.73,422,Rift zone / Oceanic crust (< 15 km),Evidence Credible,Basalt / Picro-Basalt,Trachybasalt / Tephrite Basanite,Trachyandesite / Basaltic Trachyandesite, , , , , , , ,219,304,811,850223
252100,Hargy,Stratovolcano,950,Papua New Guinea,Melanesia and Australia,New Britain,-5.33,151.1,1148,Subduction zone / Continental crust (>25 km),Eruption Dated,Dacite,Andesite / Basaltic Andesite, , , , , , , , ,84,5093,14613,85504
231001,Harrat Ash Shamah,Volcanic field,1850,Syria-Jordan-Saudi Arabia,Middle East and Indian Ocean,Middle East (western),32.333,37.583,1100,Intraplate / Continental crust (>25 km),Eruption Observed,Basalt / Picro-Basalt,Trachybasalt / Tephrite Basanite, , , ,Andesite / Basaltic Andesite,Trachyandesite / Basaltic Trachyandesite,Trachyte / Trachydacite, , ,276996,276996,276996,276996
283122,Harunasan,Stratovolcano,550,Japan,"Japan, Taiwan, Marianas",Honshu,36.477,138.851,1449,Subduction zone / Continental crust (>25 km),Eruption Dated,Andesite / Basaltic Andesite,Dacite,Basalt / Picro-Basalt, , , , , , , ,1135,36116,1185012,14076385
213002,Hasan Dagi,Stratovolcano,Unknown,Turkey,Mediterranean and Western Asia,Turkey,38.13,34.17,3253,Intraplate / Continental crust (>25 km),Evidence Credible,Dacite,Andesite / Basaltic Andesite,Rhyolite,Basalt / Picro-Basalt,Trachyandesite / Basaltic Trachyandesite, , , , , ,235,4979,174584,1362673
275040,Haut Dong Nai,Volcanic field,Unknown,Vietnam,Philippines and SE Asia,Southeast Asia,11.6,108.2,1000,Intraplate / Continental crust (>25 km),Evidence Uncertain,Basalt / Picro-Basalt,Trachybasalt / Tephrite Basanite,Trachyandesite / Basaltic Trachyandesite,Andesite / Basaltic Andesite, , , , , , ,136278,136278,344723,2975160
231110,"Haylan, Jabal",Volcanic field,-1200,Yemen,Middle East and Indian Ocean,Middle East (southern),15.4,45.1,1550,Intraplate / Continental crust (>25 km),Eruption Dated,Basalt / Picro-Basalt, , , , , , , , , ,225754,225754,225754,4164209
241140,Healy,Submarine,1360,New Zealand,New Zealand to Fiji,New Zealand,-35.004,178.973,-980,Subduction zone / Oceanic crust (< 15 km),Eruption Dated,Dacite, , , , ,Rhyolite,Basalt / Picro-Basalt, , , ,0,0,0,0
234010,Heard,Stratovolcano,2020,Australia,Middle East and Indian Ocean,Indian Ocean (southern),-53.106,73.513,2745,Intraplate / Oceanic crust (< 15 km),Eruption Observed,Trachybasalt / Tephrite Basanite,Basalt / Picro-Basalt,Trachyandesite / Basaltic Trachyandesite,Trachyte / Trachydacite,Phono-tephrite /  Tephri-phonolite, , , , , ,0,0,0,0
372070,Hekla,Stratovolcano,2000,Iceland,Iceland and Arctic Ocean,Iceland (southern),63.983,-19.666,1490,Rift zone / Oceanic crust (< 15 km),Eruption Observed,Andesite / Basaltic Andesite,Basalt / Picro-Basalt,Rhyolite,Dacite, , , , , , ,0,0,298,22845
370020,Helgrindur,Pyroclastic cone(s),Unknown,Iceland,Iceland and Arctic Ocean,Iceland (western),64.866,-23.283,986,Rift zone / Oceanic crust (< 15 km),Evidence Credible,Basalt / Picro-Basalt, , , , , , , , , ,753,753,2312,20018
324040,Hell's Half Acre,Shield,-3250,United States,Canada and Western USA,USA (Idaho),43.5,-112.45,1631,Rift zone / Continental crust (>25 km),Eruption Dated,Basalt / Picro-Basalt, , , , , , , , , ,0,305,12646,295506
371050,Hengill,Crater rows,150,Iceland,Iceland and Arctic Ocean,Iceland (southwestern),64.083,-21.416,803,Rift zone / Oceanic crust (< 15 km),Eruption Dated,Basalt / Picro-Basalt,Andesite / Basaltic Andesite,Rhyolite, , , , , , , ,5722,5722,124106,204855
383020,Hierro,Shield,2012,Spain,Atlantic Ocean,Canary Islands,27.73,-18.03,1500,Intraplate / Oceanic crust (< 15 km),Eruption Observed,Trachybasalt / Tephrite Basanite,Basalt / Picro-Basalt,Trachyandesite / Basaltic Trachyandesite, , ,Trachyte / Trachydacite,Foidite, , , ,20321,20321,20321,43696
283131,Hiuchigatake,Stratovolcano,1544,Japan,"Japan, Taiwan, Marianas",Honshu,36.955,139.285,2356,Subduction zone / Continental crust (>25 km),Eruption Observed,Andesite / Basaltic Andesite,Dacite, , , , , , , , ,179,720,18567,7523509
390110,Hodson,Stratovolcano,Unknown,United Kingdom,Antarctica,Antarctica and South Sandwich Islands,-56.712,-27.176,835,Subduction zone / Oceanic crust (< 15 km),Evidence Credible,Basalt / Picro-Basalt,Andesite / Basaltic Andesite, , , , , , , , ,0,0,0,0
371090,Hofsjokull,Subglacial,Unknown,Iceland,Iceland and Arctic Ocean,Iceland (southwestern),64.833,-18.766,1765,Rift zone / Oceanic crust (< 15 km),Evidence Credible,Basalt / Picro-Basalt,Rhyolite, , , , , , , , ,0,0,0,3436
285020,Hokkaido-Komagatake,Stratovolcano,2000,Japan,"Japan, Taiwan, Marianas",Hokkaido,42.063,140.677,1131,Subduction zone / Continental crust (>25 km),Eruption Observed,Andesite / Basaltic Andesite, , , , , , , , , ,173,23091,234213,962081
222070,Homa Mountain,Complex,Unknown,Kenya,Africa and Red Sea,Africa (eastern),-0.38,34.5,1751,Rift zone / Continental crust (>25 km),Evidence Credible,Foidite,Phonolite, , , , , , , , ,16124,60670,628701,10069120
322010,Hood,Stratovolcano,1866,United States,Canada and Western USA,USA (Oregon),45.374,-121.695,3426,Subduction zone / Continental crust (>25 km),Eruption Observed,Andesite / Basaltic Andesite, , , , ,Dacite, , , , ,0,850,9721,2067520
320080,Hoodoo Mountain,Subglacial,-7050,Canada,Canada and Western USA,Canada,56.78,-131.28,1850,Intraplate / Continental crust (>25 km),Eruption Dated,Phonolite,Trachyte / Trachydacite, , , ,Basalt / Picro-Basalt, , , , ,0,0,0,2330
371051,Hromundartindur,Stratovolcano,Unknown,Iceland,Iceland and Arctic Ocean,Iceland (southwestern),64.083,-21.333,550,Rift zone / Oceanic crust (< 15 km),Evidence Uncertain,Basalt / Picro-Basalt, , , , , , , , , ,5738,5738,26028,201964
332040,Hualalai,Shield,1801,United States,Hawaii and Pacific Ocean,Hawaiian Islands,19.692,-155.87,2523,Intraplate / Oceanic crust (< 15 km),Eruption Observed,Basalt / Picro-Basalt, , , , ,Trachybasalt / Tephrite Basanite,Trachyte / Trachydacite, , , ,35906,35906,46959,166240
354005,Huambo,Volcanic field,-700,Peru,South America,Peru,-15.83,-72.13,4550,Subduction zone / Continental crust (>25 km),Eruption Dated,Trachyandesite / Basaltic Trachyandesite, , , , ,Andesite / Basaltic Andesite, , , , ,301,1157,7271,1028814
357123,Huanquihue Group,Stratovolcano(es),1750,Argentina,South America,Central Chile and Argentina,-39.887,-71.58,2189,Subduction zone / Continental crust (>25 km),Eruption Dated,Basalt / Picro-Basalt,Andesite / Basaltic Andesite, , , , , , , , ,22,108,3515,190322
354030,Huaynaputina,Stratovolcano,1600,Peru,South America,Peru,-16.608,-70.85,4850,Subduction zone / Continental crust (>25 km),Eruption Observed,Dacite, , , , , , , , , ,36,210,9153,1088509
390028,Hudson Mountains,Stratovolcano(es),-210,Antarctica,Antarctica,Antarctica and South Sandwich Islands,-74.33,-99.42,749,Intraplate / Continental crust (>25 km),Eruption Dated,Basalt / Picro-Basalt,Trachybasalt / Tephrite Basanite, , , , , , , , ,0,0,0,0
358057,"Hudson, Cerro",Stratovolcano,2011,Chile,South America,Southern Chile and Argentina,-45.9,-72.97,1905,Subduction zone / Continental crust (>25 km),Eruption Observed,Basalt / Picro-Basalt,Trachyandesite / Basaltic Trachyandesite,Trachyte / Trachydacite,Trachybasalt / Tephrite Basanite,Andesite / Basaltic Andesite, , , , , ,0,12,28,81642
358030,Huequi,Lava dome(s),1920,Chile,South America,Southern Chile and Argentina,-42.377,-72.578,1318,Subduction zone / Continental crust (>25 km),Eruption Observed,Andesite / Basaltic Andesite,Dacite, , , , , , , , ,0,7,1076,107960
261280,Hulubelu,Caldera,Unknown,Indonesia,Indonesia,Sumatra,-5.334,104.59,849,Subduction zone / Continental crust (>25 km),Unrest / Holocene,Andesite / Basaltic Andesite,Dacite,Basalt / Picro-Basalt, , , , , , , ,56894,56894,99405,4261988
261200,Hululais,Compound,Unknown,Indonesia,Indonesia,Sumatra,-3.247,102.239,2122,Subduction zone / Continental crust (>25 km),Unrest / Holocene,Basalt / Picro-Basalt,Andesite / Basaltic Andesite, , , , , , , , ,9,21,45038,1566370
341093,"Humeros, Los",Caldera(s),-4470,Mexico,México and Central America,Mexico,19.68,-97.45,3150,Subduction zone / Continental crust (>25 km),Eruption Dated,Rhyolite,Andesite / Basaltic Andesite,Dacite,Basalt / Picro-Basalt, ,Trachyte / Trachydacite, , , , ,7461,27331,566898,5710131
253050,Iamalele,Lava dome(s),Unknown,Papua New Guinea,Melanesia and Australia,New Guinea and D'Entrecasteaux Islands,-9.52,150.53,200,Subduction zone / Continental crust (>25 km),Evidence Credible,Andesite / Basaltic Andesite,Rhyolite,Basalt / Picro-Basalt, , , , , , , ,382,766,8026,113875
268030,Ibu,Stratovolcano,2020,Indonesia,Indonesia,Halmahera,1.488,127.63,1325,Subduction zone / Oceanic crust (< 15 km),Eruption Observed,Andesite / Basaltic Andesite,Basalt / Picro-Basalt, , , , , , , , ,1560,14549,64581,637988
300710,Iettunup,Shield(s),Unknown,Russia,Kamchatka and Mainland Asia,Kamchatka Peninsula,58.4,161.08,1340,Subduction zone / Continental crust (>25 km),Evidence Uncertain,Basalt / Picro-Basalt,Andesite / Basaltic Andesite, , , , , , , , ,0,0,2,2905
222161,Igwisi Hills,Pyroclastic cone(s),-10450,Tanzania,Africa and Red Sea,Africa (eastern),-4.889,31.933,1146,Rift zone / Continental crust (>25 km),Eruption Dated,Foidite, , , , , , , , , ,37034,37034,105827,774440
263350,Ijen,Stratovolcano(es),1999,Indonesia,Indonesia,Java,-8.058,114.242,2769,Subduction zone / Continental crust (>25 km),Eruption Observed,Andesite / Basaltic Andesite,Basalt / Picro-Basalt, , , ,Dacite, , , , ,1098,5504,664199,6846855
300670,Iktunup,Shield(s),Unknown,Russia,Kamchatka and Mainland Asia,Kamchatka Peninsula,58.08,160.77,2300,Subduction zone / Continental crust (>25 km),Evidence Uncertain,Basalt / Picro-Basalt,Andesite / Basaltic Andesite, , , , , , , , ,0,0,16,1965
313020,Iliamna,Stratovolcano,1876,United States,Alaska,Alaska (southwestern),60.032,-153.09,3053,Subduction zone / Continental crust (>25 km),Eruption Observed,Andesite / Basaltic Andesite, , , , ,Basalt / Picro-Basalt, , , , ,0,0,1,7564
264220,Iliboleng,Stratovolcano,1993,Indonesia,Indonesia,Lesser Sunda Islands,-8.342,123.258,1659,Subduction zone / Crustal thickness unknown,Eruption Observed,Basalt / Picro-Basalt,Andesite / Basaltic Andesite, , , , , , , , ,30359,87503,260688,757701
264240,Ililabalekan,Stratovolcano,Unknown,Indonesia,Indonesia,Lesser Sunda Islands,-8.55,123.38,1018,Subduction zone / Crustal thickness unknown,Unrest / Holocene,Basalt / Picro-Basalt,Andesite / Basaltic Andesite, , , , , , , , ,7747,14260,123287,756090
264170,Ilimuda,Stratovolcano,Unknown,Indonesia,Indonesia,Lesser Sunda Islands,-8.479,122.761,881,Subduction zone / Crustal thickness unknown,Unrest / Holocene,Andesite / Basaltic Andesite, , , , , , , , , ,32343,72197,263803,903546
264250,Iliwerung,Complex,2013,Indonesia,Indonesia,Lesser Sunda Islands,-8.53,123.57,1018,Subduction zone / Crustal thickness unknown,Eruption Observed,Basalt / Picro-Basalt,Andesite / Basaltic Andesite, , , , , , , , ,968,4318,79569,665081
352041,Illiniza,Stratovolcano,Unknown,Ecuador,South America,Ecuador,-0.659,-78.714,5248,Subduction zone / Continental crust (>25 km),Evidence Credible,Andesite / Basaltic Andesite,Dacite, , , ,Rhyolite, , , , ,535,6034,158371,3941221
343060,Ilopango,Caldera,1880,El Salvador,México and Central America,El Salvador and Honduras,13.672,-89.053,450,Subduction zone / Continental crust (>25 km),Eruption Observed,Dacite,Andesite / Basaltic Andesite,Basalt / Picro-Basalt, , ,Rhyolite, , , , ,2049583,2049583,2948989,6689160
352004,Imbabura,Compound,-5550,Ecuador,South America,Ecuador,0.258,-78.183,4609,Subduction zone / Continental crust (>25 km),Eruption Dated,Andesite / Basaltic Andesite,Dacite, , , , , , , , ,538,96294,477043,3245887
314060,Imuruk Lake,Shield(s),300,United States,Alaska,Alaska (western),65.517,-163.45,610,Intraplate / Continental crust (>25 km),Eruption Dated,Basalt / Picro-Basalt, , , , , , , , , ,0,0,0,0
321070,Indian Heaven,Shield(s),-6250,United States,Canada and Western USA,USA (Washington),45.93,-121.82,1806,Subduction zone / Continental crust (>25 km),Eruption Dated,Basalt / Picro-Basalt,Andesite / Basaltic Andesite, , , , , , , , ,687,687,6911,2019828
357041,Infiernillo,Volcanic field,-6890,Argentina,South America,Central Chile and Argentina,-35.123,-69.9,3007,Intraplate / Continental crust (>25 km),Eruption Dated,Andesite / Basaltic Andesite, , , , , , , , , ,270,270,1374,40368
264090,Inielika,Complex,2001,Indonesia,Indonesia,Lesser Sunda Islands,-8.73,120.98,1559,Subduction zone / Crustal thickness unknown,Eruption Observed,Andesite / Basaltic Andesite, , , , , , , , , ,4601,27281,162299,818815
264080,Inierie,Stratovolcano,-8050,Indonesia,Indonesia,Lesser Sunda Islands,-8.875,120.95,2245,Subduction zone / Crustal thickness unknown,Eruption Dated,Andesite / Basaltic Andesite,Basalt / Picro-Basalt, , , , , , , , ,1073,7501,101938,809293
284120,Ioto,Caldera,2012,Japan,"Japan, Taiwan, Marianas","Izu, Volcano, and Mariana Islands",24.751,141.289,169,Subduction zone / Crustal thickness unknown,Eruption Observed,Trachyandesite / Basaltic Trachyandesite,Trachyte / Trachydacite, , , , , , , , ,1179,1179,1189,1370
282020,Io-Torishima,Complex,1968,Japan,"Japan, Taiwan, Marianas",Ryukyu Islands and Kyushu,27.881,128.223,212,Subduction zone / Oceanic crust (< 15 km),Eruption Observed,Andesite / Basaltic Andesite, , , , , , , , , ,0,0,0,52818
342190,Ipala,Stratovolcano,Unknown,Guatemala,México and Central America,Guatemala,14.55,-89.63,1650,Subduction zone / Continental crust (>25 km),Evidence Credible,Basalt / Picro-Basalt, , , , , , , , , ,3381,25003,332154,6136659
345060,Irazu,Stratovolcano,1994,Costa Rica,México and Central America,Costa Rica,9.979,-83.852,3432,Subduction zone / Continental crust (>25 km),Eruption Observed,Andesite / Basaltic Andesite,Basalt / Picro-Basalt, , , , , , , , ,1978,25442,1667528,3432860
341023,"Isabel, Isla",Tuff cone(s),Unknown,Mexico,México and Central America,Mexico,21.848,-105.886,95,Subduction zone / Continental crust (>25 km),Evidence Uncertain,Basalt / Picro-Basalt,Trachybasalt / Tephrite Basanite, , , , , , , , ,0,0,0,0
273042,Isarog,Stratovolcano,-3500,Philippines,Philippines and SE Asia,Luzon,13.658,123.38,1966,Subduction zone / Continental crust (>25 km),Eruption Dated,Andesite / Basaltic Andesite, , , , , , , , , ,146,27806,1208269,4291363
211030,Ischia,Complex,1302,Italy,Mediterranean and Western Asia,Italy,40.73,13.897,789,Subduction zone / Continental crust (>25 km),Eruption Observed,Trachyte / Trachydacite,Trachyandesite / Basaltic Trachyandesite, , , ,Phonolite,Trachybasalt / Tephrite Basanite,Phono-tephrite /  Tephri-phonolite, , ,18669,20210,383661,5729354
320090,Iskut-Unuk River Cones,Pyroclastic cone(s),1800,Canada,Canada and Western USA,Canada,56.58,-130.55,1880,Intraplate / Continental crust (>25 km),Eruption Dated,Basalt / Picro-Basalt, , , , , , , , , ,0,0,0,663
233014,Itasy Volcanic Field,Pyroclastic cone(s),-6050,Madagascar,Middle East and Indian Ocean,Indian Ocean (western),-19.033,46.7,1800,Intraplate / Continental crust (>25 km),Eruption Dated,Trachyte / Trachydacite,Trachybasalt / Tephrite Basanite,Phonolite, , , , , , , ,129121,129121,249291,4168513
231050,"Ithnayn, Harrat",Volcanic field,Unknown,Saudi Arabia,Middle East and Indian Ocean,Middle East (southern),26.58,40.2,1625,Intraplate / Continental crust (>25 km),Evidence Credible,Basalt / Picro-Basalt,Trachybasalt / Tephrite Basanite, , , , , , , , ,3112,3112,3112,19734
283270,Iwakisan,Stratovolcano,1863,Japan,"Japan, Taiwan, Marianas",Honshu,40.656,140.303,1625,Subduction zone / Continental crust (>25 km),Eruption Observed,Andesite / Basaltic Andesite, , , , , , , , , ,918,13229,465065,1617801
283240,Iwatesan,Complex,1919,Japan,"Japan, Taiwan, Marianas",Honshu,39.853,141.001,2038,Subduction zone / Continental crust (>25 km),Eruption Observed,Basalt / Picro-Basalt,Andesite / Basaltic Andesite, , , , , , , , ,439,18462,415920,2976795
342180,Ixtepeque,Lava dome(s),Unknown,Guatemala,México and Central America,Guatemala,14.42,-89.68,1292,Subduction zone / Continental crust (>25 km),Evidence Credible,Rhyolite,Basalt / Picro-Basalt,Andesite / Basaltic Andesite, , , , , , , ,131906,131906,374232,8263727
264110,Iya,Stratovolcano,1969,Indonesia,Indonesia,Lesser Sunda Islands,-8.891,121.641,618,Subduction zone / Crustal thickness unknown,Eruption Observed,Basalt / Picro-Basalt,Andesite / Basaltic Andesite, , , , , , , , ,10837,46835,62974,535387
263330,Iyang-Argapura,Complex,Unknown,Indonesia,Indonesia,Java,-7.97,113.57,3088,Subduction zone / Continental crust (>25 km),Evidence Credible,Andesite / Basaltic Andesite,Basalt / Picro-Basalt, , , , , , , , ,372,11959,1601344,10538031
341082,Iztaccihuatl,Stratovolcano,Unknown,Mexico,México and Central America,Mexico,19.179,-98.642,5230,Subduction zone / Continental crust (>25 km),Evidence Credible,Andesite / Basaltic Andesite,Dacite, , , ,Rhyolite,Basalt / Picro-Basalt,Trachyandesite / Basaltic Trachyandesite, , ,98,1343,1036172,27276280
284010,Izu-Oshima,Stratovolcano,1990,Japan,"Japan, Taiwan, Marianas","Izu, Volcano, and Mariana Islands",34.724,139.394,758,Subduction zone / Oceanic crust (< 15 km),Eruption Observed,Basalt / Picro-Basalt,Andesite / Basaltic Andesite, , , ,Dacite, , , , ,2381,8037,8375,11837468
283010,Izu-Tobu,Pyroclastic cone(s),1989,Japan,"Japan, Taiwan, Marianas",Honshu,34.9,139.098,1406,Subduction zone / Continental crust (>25 km),Eruption Observed,Basalt / Picro-Basalt,Andesite / Basaltic Andesite,Dacite, , ,Rhyolite, , , , ,5886,61727,447660,17928355
284090,Izu-Torishima,Stratovolcano,2002,Japan,"Japan, Taiwan, Marianas","Izu, Volcano, and Mariana Islands",30.484,140.303,394,Subduction zone / Oceanic crust (< 15 km),Eruption Observed,Basalt / Picro-Basalt,Dacite,Andesite / Basaltic Andesite, , , , , , , ,21,21,21,21
268051,Jailolo,Stratovolcano,Unknown,Indonesia,Indonesia,Halmahera,1.08,127.439,993,Subduction zone / Oceanic crust (< 15 km),Evidence Credible,Andesite / Basaltic Andesite,Basalt / Picro-Basalt, , , , , , , , ,7459,21868,79855,633186
